address_id,geocoded_address,lon,lat
4970,424 JEFFERSON AVENUE,-73.94077,40.684345
3640,1217 84TH STREET,-74.01443,40.616272
4971,216 HANCOCK STREET,-73.94745,40.682827
2306,5804 16TH AVENUE,-73.99083,40.62594
3638,86 WHITMAN DRIVE,-73.90389,40.61158
4969,411 THROOP AVENUE,-73.942116,40.68893
2305,1519 39TH STREET,-73.98137,40.637657
3639,102 ST MARKS PLACE,-73.979294,40.68156
2304,2337 85TH STREET,-73.99011,40.600674
2303,1839 84TH STREET,-74.00047,40.60784
2302,8120 19 AVENUE,-73.99766,40.60864
2301,1754 68TH STREET,-73.993004,40.618027
2300,127 MACDONOUGH STREET,-73.94135,40.681293
3630,1245 HERKIMER STREET,-73.91228,40.677605
4961,1138 OCEAN AVENUE,-73.95806,40.634525
3631,1854 PROSPECT PLACE,-73.91535,40.672413
4962,1014 EAST 21ST STREET,-73.955925,40.62879
3632,85 EIGHTH AVENUE,-73.97315,40.67319
4963,1250 76TH STREET,-74.00914,40.62035
3633,353 3 STREET,-73.9838,40.673054
4964,2537 EAST 27TH STREET,-73.942924,40.590546
3634,202 ST. MARKS AVENUE,-73.96964,40.67877
4965,1513 PACIFIC STREET,-73.940865,40.677174
2309,2139 60TH STREET,-73.979774,40.61751
3635,240 PROSPECT PLACE,-73.968414,40.677567
4966,220 AVENUE W,,
2308,1516 46TH STREET,-73.98549,40.633755
3636,4702 BEDFORD AVENUE,-73.9442,40.58701
4967,9921 4 AVENUE,-74.03328,40.61326
2307,870 59TH STREET,-74.00746,40.635166
3637,444 HUMBOLDT STREET,-73.94312,40.71729
4968,217 MAC DONOUGH STREET,,
4980,167 KINGSTON AVENUE,-73.941734,40.674217
3650,1980 73RD STREET,-73.99108,40.612312
4981,1465 STERLING PLACE,-73.93002,40.671432
3651,1289 MYRTLE AVENUE,-73.92699,40.69791
4982,995 WASHINGTON AVENUE,-73.961426,40.665718
2320,272 HIMROD ST,-73.91924,40.700718
2317,253 HENRY STREET,-73.99514,40.69301
3649,440 LEXINGTON AVENUE,-73.9435,40.68853
1,21 CLARK STREET,-73.995384,40.69811
2316,20 PIERREPONT STREET,-73.996346,40.69611
2,16 COURT STREET,-73.99059,40.693394
2315,269 NEPTUNE AVENUE,-73.96336,40.58124
3,20 NORTH 12 STREET,-73.96024,40.723995
2314,130 OCEANA DRIVE WEST,-73.9588,40.576626
4,55 PROSPECT STREET,-73.988174,40.700687
2313,1224 41ST STREET,-73.98904,40.640453
5,90 SANDS STREET,-73.98711,40.69996
2312,1545 47TH STREE,-73.985435,40.632824
6,77 SANDS STREET,,
2311,1717 44TH STREET,-73.979744,40.632126
7,175 PEARL STREET,-73.98779,40.6997
2310,1046 62ND STREET,-74.0053,40.631058
8,117 ADAMS STREET,-73.98869,40.700413
3641,1044 57TH STREET,-74.00238,40.633926
4972,135 WILLOW STREET,-73.995804,40.69738
9,107 COLUMBIA HEIGHTS,-73.99582,40.69937
3642,193 KOSCIUSZKO STREET,-73.946396,40.691204
4973,1522 PITKIN AVENUE,-73.91746,40.668682
3643,1766 78TH STREET,-73.998604,40.612164
4974,926 MOTHER GASTON BLVD,-73.903404,40.65616
3644,632 CENTRAL AVENUE,-73.90825,40.688457
4975,1249 DEKALB AVENUE,-73.92672,40.696693
3645,1562 ST MARKS AVENUE,-73.91546,40.673313
4976,1278 JEFFERSON AVENUE,-73.9123,40.692276
3646,273 MANHATTAN AVENUE,-73.94587,40.713116
4977,37 COVERT STREET,-73.912674,40.685944
2319,970 DECATUR STREET,-73.91145,40.684776
3647,747 UNION STREET,-73.97975,40.676144
4978,215 SCHAEFER STREET,-73.90709,40.69044
2318,215 58TH STREET,-74.02117,40.64436
3648,503 HALSEY STREET,-73.93279,40.683777
4979,481 HENRY STREET,-73.998856,40.68528
4990,1913 EAST 21ST STREET,-73.95161,40.60604
3660,656 KNICKERBOCKER AVENUE,-73.911995,40.695187
4991,2711 AVENUE S,,
3661,781 HART STREET,-73.92372,40.700943
4992,1927 EAST 18TH STREET,-73.95429,40.60307
3662,168 HUNTINGTON STREET,-73.9999,40.67608
4993,154 MACKENZIE STREET,-73.940025,40.57946
1000,60 SHERMAN STREET,-73.97714,40.65714
2331,502 PRESIDENT STREET,-73.986244,40.677853
2330,150 RUTLAND ROAD,-73.955574,40.659084
2328,1250 NEW YORK AVENUE,-73.94577,40.642403
2327,96 SCHERMERHORN STREET,-73.990074,40.690456
2326,824 ST JOHNS PLACE,,
2325,271 NEW YORK AVENUE,-73.94763,40.67073
2324,69 CARROLL STREET,-74.00347,40.683002
2323,86 BUTLER STREET,-73.991844,40.684036
2322,67 CENTRAL AVENUE,-73.93048,40.70111
2321,1158 GATES AVENUE,-73.92013,40.691463
3652,932 PRESIDENT STREET,-73.972496,40.6725
4983,1623 ST. JOHNS PLACE,,
3653,426 STERLING PLACE,-73.96423,40.674797
4984,476 STERLING PLACE,-73.96247,40.674427
3654,340 BROADWAY,-73.955864,40.7077
4985,57 FRONT STREET,-73.99099,40.702557
3655,639 6 AVENUE,-73.989075,40.662113
4986,7815 11TH AVENUE,-74.01373,40.621128
3656,233 34TH STREET,-74.00227,40.654842
4987,425 CLEVELAND STREET,-73.88438,40.67428
3657,17 AGATE COURT,-73.93983,40.67812
4988,3311 BEVERLY ROAD,-73.945915,40.64533
3658,111 HICKS STREET,-73.994446,40.69821
4989,175 WILLOUGHBY STREET,-73.98142,40.692017
2329,252 EAST 39TH STREET,-73.94095,40.651066
3659,173 HICKS STREET,-73.99522,40.69659
3670,241 68TH STREET,-74.02701,40.63708
3671,2421 EAST 74TH STREET,-73.89952,40.616035
3672,171 COOPER STREET,-73.906624,40.68853
3673,210 PRESIDENT STREET,-73.99872,40.682426
1011,190 GARFIELD PLACE,-73.977646,40.672596
2342,1494 EAST 17TH STREET,-73.9573,40.613705
1010,49 IRVING PLACE,-73.95993,40.683666
2341,3278 BEDFORD AVENUE,-73.95092,40.62252
2340,956 EAST 22 STREET,-73.95496,40.628704
1008,332 ST MARKS AVENUE,-73.96465,40.677723
2339,1145 EAST 21 STREET,-73.95524,40.625237
1007,475 1 STREET,-73.97671,40.67131
2338,153 AMHERST STREET,-73.952126,40.57812
1006,117A KING STREET,-74.01141,40.678204
2337,122 OXFORD STREET,-73.93803,40.580204
1005,266 BERRY STREET,-73.963356,40.714233
2336,2211 AVENUE U,-73.949295,40.59962
1004,420 5TH STREET,-73.981514,40.670246
2335,240 EAST 4TH STREET,-73.97703,40.64634
1003,1260 49TH STREET,-73.99302,40.63556
2334,450 MANHATTAN AVENUE,-73.94732,40.719906
1002,1370 53 STREET,-73.99296,40.631878
2333,87 GREENPOINT AVE,-73.956566,40.729984
1001,268 SAINT JAMES PLACE,-73.96357,40.68229
2332,16 APOLLO STREET,-73.93773,40.724827
3663,1215 FLATBUSH AVENUE,-73.95583,40.64071
4994,1611 CEDAR ST,-73.958824,40.617466
3664,176 VANDERBILT AVENUE,-73.96968,40.69232
4995,466 MAYFAIR DRIVE,-73.908264,40.607803
3665,10 BAY 47TH STREET,,
4996,50 BARLOW DRIVE NORTH,-73.905,40.610332
3666,179 AVENUE W,,
4997,239 SUMPTER STREET,-73.91568,40.680492
3667,134 POWERS STREET,-73.94546,40.71224
4998,1189 OCEAN PARKWAY,-73.969345,40.61983
3668,100 MASPETH AVENUE,-73.939674,40.715897
4999,2078 EAST 58TH STREET,-73.917274,40.613945
3669,340 DEAN STREET,-73.980156,40.683502
1009,280 SACKETT STREET,-73.99583,40.68314
3680,1 ROCKWELL PLACE,-73.979485,40.689735
3681,338 2ND STREET,-73.98332,40.673653
3682,70 DEVOE STREET,-73.9487,40.713367
3683,8747 14TH AVENUE,-74.01463,40.609917
3684,61 78TH STREET,-74.035515,40.63092
1022,823 CLASSON AVENUE,-73.960915,40.672543
2353,630 BERGEN STRET,-73.96883,40.679543
1021,1259 LINCOLN PL,-73.93488,40.669956
2352,315-317 16TH STREET,-73.985825,40.663044
1020,230 WASHINGTON AVENUE,-73.96654,40.69159
2351,195 15TH STREET,-73.99001,40.665913
2350,25 PLAZA STREET WEST,-73.97146,40.673767
1019,576 WASHINGTON AVENUE,-73.964554,40.68168
1018,119 VANDERBILT AVENUE,-73.97003,40.694183
2349,593 FOURTH STREET,-73.97573,40.668304
1017,1555 53RD STREET,-73.988846,40.62941
2348,430 AVENUE Y,-73.97011,40.58839
1016,508 MADISON STREET,-73.93765,40.686203
2347,2147 EAST 5TH STREET,-73.96693,40.598125
1015,181 MADISON STREET,-73.95201,40.68456
2346,716 AVENUE V,-73.96347,40.59589
1014,314 CLIFTON PLACE,-73.95213,40.689034
2345,1962 EAST 1ST STREET,-73.97117,40.600456
1013,569 LAFAYETTE AVENUE,-73.95193,40.689816
2344,1496 OCEAN PARKWAY,-73.96848,40.612232
1012,274 HOYT STREET,-73.99105,40.681797
2343,1315 AVENUE P,-73.96026,40.61023
3674,794 ARGYLE ROAD,-73.96421,40.630028
3675,132 ST MARKS PLACE,-73.97878,40.681362
3676,198 ROEBLING STREET,-73.95874,40.712692
3677,1884 WEST 8TH STREET,-73.98041,40.601406
3678,69 BERRY STREET,-73.95739,40.72013
3679,258 HIMROD STREET,-73.91953,40.700417
3690,319 QUINCY STREET,-73.94809,40.68726
3691,468 HART STREET,-73.932205,40.69508
3692,213 MAC DONOUGH STREET,-73.93749,40.681736
3693,381 MAC DONOUGH STREET,-73.93047,40.68254
3694,348 QUINCY STREET,-73.947044,40.68737
3695,533A QUINCY STREET,-73.93802,40.68842
1033,730 HICKS STREET,,
2364,186 SEELEY STREET,-73.97573,40.654804
1032,245 12TH STREET,-73.98926,40.668083
2363,296 BROADWAY,-73.958145,40.708504
1031,415 16TH STREET,-73.9821,40.66124
2362,322 ROEBLING STREET,-73.96094,40.708637
1030,369 11TH STREET,-73.98604,40.66737
2361,289 DEVOE STREET,-73.93784,40.713844
2360,218 31ST STREET,-74.00061,40.656555
1029,345 FIFTH STREET,-73.98317,40.671055
1028,1958 EAST 1ST STREET,-73.97118,40.60054
2359,630 40TH STREET,-74.00155,40.648926
1027,1388 OCEAN PARKWAY,-73.96901,40.614986
2358,664 54TH STREET,-74.00906,40.640694
1026,853 EAST 9TH STREET,-73.96776,40.628067
2357,166 22ND STREET,-73.99664,40.662373
1025,1308 KINGS HIGHWAY,-73.9599,40.608078
2356,2235 EMMONS AVENUE,-73.94514,40.583706
1024,249 7TH STREET,-73.987976,40.671688
2355,127 KING STREET,-74.01149,40.678257
1023,25 EAST 21ST STREET,-73.96067,40.6539
2354,324 ST MARKS AVENUE,-73.96491,40.677776
3685,345 72ND STREET,-74.0257,40.63323
3686,632 76TH STREET,-74.02003,40.626926
3687,248 80TH STREET,-74.03064,40.628155
3688,9315 RIDGE BOULEVARD,-74.03576,40.619137
3689,533 QUINCY STREET,-73.93805,40.688416
1044,5803 5TH AVENUE,-74.01503,40.640568
2375,50 BAYARD STREET,-73.950356,40.718987
1043,2541 OCEAN AVENUE,-73.95145,40.59961
2374,18 MONROE PLACE,-73.99236,40.6967
1042,507 EVERGREEN AVENUE,-73.91607,40.690624
2373,5709 20TH AVE,-73.981255,40.62094
1041,8721-8729 19TH AVENUE,-74.00299,40.603493
2372,2114 83RD STREET,-73.99383,40.604725
1040,112 RUTLAND ROAD,-73.95714,40.658985
2371,832 PUTNAM AVENUE,-73.92842,40.686512
2370,1010 PUTNAM AVENUE,-73.92175,40.68728
1039,526 EAST 19TH STREET,-73.959946,40.637974
1038,381 JEFFERSON AVENUE,-73.94262,40.684143
2369,365 HANCOCK STREET,-73.941696,40.683502
1037,390 UNION AVENUE,-73.951294,40.712074
2368,1313 STERLING PLACE,-73.93452,40.67168
1036,64 NORTH 8TH STREET,-73.96025,40.72032
2367,459 QUINCY STREET,-73.94139,40.68803
1035,139 POWERS STREET,-73.94521,40.712273
2366,1351 56TH STREET,-73.99482,40.63028
1034,233 KEAP STREET,-73.95728,40.70581
2365,70 EAST 3RD STREET,-73.97885,40.65097
3696,6716 20TH AVENUE,-73.9872,40.615242
3697,1934 51 STREET,-73.979004,40.625275
3698,1255 59TH STREET,-73.99894,40.63004
3699,5907 17TH AVENUE,-73.98896,40.623875
1055,172 MONITOR STREET,-73.94253,40.725193
2386,453 MAC DONOUGH STREET,-73.92748,40.682884
1054,145 PROSPECT AVENUE,-73.99371,40.666107
2385,10 REEVE PLACE,-73.97574,40.652863
1053,198 11TH STREET,-73.991,40.669754
2384,7308 21ST AVENUE,-73.98845,40.610596
1052,140 RUTLAND ROAD,-73.95585,40.65907
2383,125 BAY 34TH STREET,-73.99348,40.597603
1051,15 WILSON AVENUE,-73.93019,40.70325
2382,129A TIFFANY PLACE,-74.001114,40.686222
1050,222 52ND STREET,-74.0175,40.64761
2381,95 FIRST PLACE,-73.997375,40.680458
2380,231 STANHOPE STREET,-73.92026,40.70089
1049,128 WILLOW STREET,-73.995766,40.697487
1048,145 MONROE STREET,-73.95286,40.68521
2379,1825 60TH STREET,-73.98663,40.62165
1047,5124 17TH AVENUE,-73.98438,40.62829
2378,1630 78TH STREET,-74.001945,40.614185
1046,665 PARK PLACE,-73.95584,40.674007
2377,104 STERLING STREET,-73.957596,40.662704
1045,330 ST MARKS AVENUE,-73.96472,40.677734
2376,834 HALSEY STREET,-73.921814,40.685024
1066,50 3RD STREET,-73.99468,40.6783
2397,693 HUMBOLDT STREET,-73.945496,40.72587
1065,148 W. 9TH STREET,-73.992134,40.671993
2396,104 MIDWOOD STREET,-73.957436,40.659687
1064,263 1ST ST,-73.98361,40.674652
2395,14 MARTENSE COURT,-73.958015,40.65135
1063,1666 10TH AVENUE,-73.979195,40.657864
2394,1157 73RD ST,-74.009384,40.623386
1062,139 SKILLMAN AVENUE,-73.94584,40.715828
2393,1365 56TH STREET,-73.99461,40.630157
1061,126 29TH STREET,-74.00182,40.659138
2392,716 MARCY AVE,-73.94799,40.689217
1060,513 10TH STREET,-73.98294,40.66672
2391,369A MADISON STREET,-73.94363,40.685524
2390,442 47TH STREET,-74.00984,40.647545
1059,659 CARROLL STREET,-73.97996,40.674618
1058,133 STERLING PLACE,-73.97408,40.677242
2389,389 PARKSIDE AVENUE,-73.957924,40.655773
1057,145 PARK PLACE,-73.97393,40.67799
2388,1214 DECATUR STREET,-73.90714,40.689175
1056,114 FRANKLIN STREET,-73.957375,40.728603
2387,7617 15TH AVENUE,-74.00378,40.616917
1077,5610 9TH AVENUE,-74.005104,40.636337
1076,1422 KINGS HIGHWAY,-73.958916,40.608475
1075,74 WELLINGTON COURT,-73.96115,40.6309
1074,637 MONTGOMERY STREET,-73.94369,40.665012
1073,198 HICKS STREET,-73.9957,40.69559
1072,4711 8TH AVENUE,-74.00205,40.642704
1071,5501-5511 NEW UTRECHT AVENUE,-73.99547,40.63151
1070,90 8TH AVENUE,-73.973236,40.673084
1069,454 PROSPECT AVENUE,-73.98286,40.65949
1068,862 CARROLL STREET,-73.972496,40.6717
2399,14 JACKSON PL,-73.98608,40.662857
1067,1048 84TH STREET,-74.018234,40.61856
2398,1633 EAST 2ND STREET,-73.9721,40.60995
1080,639 MACON STREET,-73.92552,40.68386
9800,2268 WEST 7TH STREET,-73.97782,40.59275
1088,223 SPENCER STREET,-73.954704,40.69224
1087,234 DECATUR STREET,-73.933945,40.68138
1086,17 ARLINGTON PLACE,-73.9512,40.681084
1085,318 MADISON STREET,-73.946045,40.685238
1084,215 SPENCER STREET,-73.95473,40.692352
1083,146 76TH STREET,-74.03218,40.63172
1082,322 HICKS STREET,-73.99762,40.691593
1081,82 SULLIVAN STREET,-74.01197,40.677643
1079,464 11TH STREET,-73.98332,40.666046
1078,697 DEKALB AVENUE,-73.948,40.69177
1091,345 WARREN STREET,-73.99046,40.685116
1090,105A BERGEN STREET,-73.9893,40.686275
9810,696 EGAN STREET,-73.870026,40.657963
9811,698 EGAN STREET,-73.86999,40.657978
1099,581 LEONARD STREET,-73.950294,40.72469
1098,106B NASSAU AVENUE,-73.9495,40.72419
1097,14TH STREET,,
1096,143 12TH STREET,-73.99316,40.669964
1095,1120 MADISON STREET,-73.91599,40.692093
1094,285 TROUTMAN STREET,-73.92554,40.703865
1093,2805 OCEAN PARKWAY,-73.96698,40.581818
1092,1453 47TH STREET,-73.98759,40.63412
9809,697 VANDALIA AVENUE,-73.86922,40.65748
1089,87 NEVINS STREET,-73.98278,40.685898
9803,1615 AVENUE I,-73.960724,40.6277
9804,209 LINCOLN PLACE,-73.97348,40.675304
9801,1984 EAST 16TH STREET,-73.956,40.60167
9802,1854 RYDER STREET,-73.93183,40.613525
9807,115 WALLABOUT STREET,-73.95632,40.699818
9808,185 PROSPECT PARK SW,-73.97288,40.653275
9805,105 NEPTUNE AVENUE,-73.95797,40.582386
9806,420 64TH STREET,-74.02021,40.638233
9821,718 EGAN STREET,,
9822,720 EGAN STREET,,
9820,716 EGAN STREET,,
9814,704 EGAN STREET,,
9815,706 EGAN STREET,,
9812,700 EGAN STREET,,
9813,702 EGAN STREET,,
9818,712 EGAN STREET,,
9819,714 EGAN STREET,,
9816,708 EGAN STREET,,
9817,710 EGAN STREET,,
8501,361 WINTHROP STREET,-73.94851,40.65721
9832,703 VANDALIA AVENUE,,
8502,552 SCHENECTADY AVENUE,-73.9342,40.66002
9833,705 VANDALIA AVENUE,,
9830,699 VANDALIA AVENUE,-73.86918,40.657494
8500,203 EAST 38TH STREET,-73.94199,40.65215
9831,701 VANDALIA AVENUE,,
200,77 PROSPECT PLACE,-73.97493,40.67919
201,751 MYRTLE AVENUE,-73.95315,40.69493
202,1411 39TH STREET,-73.98372,40.63908
203,336 FLATBUSH AVENUE,-73.97185,40.676323
204,1809 EMMONS AVENUE,-73.95027,40.58347
205,1340 60TH STREET,-73.99771,40.628334
206,677 VANDERBILT AVENUE,-73.96924,40.6766
9825,726 EGAN STREET,,
207,5824 8TH AVENUE,-74.008545,40.63648
9826,728 EGAN STREET,,
208,1525 MYRTLE AVENUE,-73.914276,40.699238
9823,722 EGAN STREET,,
209,340 CLIFTON PLACE,-73.95092,40.689175
9824,724 EGAN STREET,,
9829,695 VANDALIA AVENUE,-73.869255,40.657463
9827,730 EGAN STREET,,
9828,732 EGAN STREET,,
9840,719 VANDALIA AVENUE,,
8512,3621 FILLMORE AVENUE,-73.932976,40.611507
9843,725 VANDALIA AVENUE,,
8513,1840 EAST 37TH STREET,-73.93348,40.6128
9844,727 VANDALIA AVENUE,,
8510,227 OCEAN PARKWAY,-73.974014,40.64425
9841,721 VANDALIA AVENUE,,
8511,1870 EAST 31ST STREET,-73.93735,40.609573
9842,723 VANDALIA AVENUE,,
210,651 4TH AVENUE,-73.994934,40.663418
211,99 NORTH 6TH STREET,-73.9602,40.718452
212,67 HANSON PLACE,-73.97493,40.685448
213,536 4TH STREET,-73.976,40.668423
214,120 JAVA STREET,-73.956314,40.731438
215,6701 5 AVENUE,-74.020164,40.635517
216,2064 MCDONALD AVENUE,-73.97249,40.60243
217,51 JAY ST,-73.98663,40.70323
8505,4517 AVENUE M,-73.93175,40.62108
9836,711 VANDALIA AVENUE,,
218,253 EMPIRE BOULEVARD,-73.95362,40.663746
8506,1173 E 49TH STREET,-73.929245,40.631695
9837,713 VANDALIA AVENUE,,
219,2018 EAST 4TH STREET,-73.96839,40.60081
8503,1377 EAST 46TH STREET,-73.931656,40.62714
9834,707 VANDALIA AVENUE,,
8504,1982 TROY AVENUE,-73.93322,40.623695
9835,709 VANDALIA AVENUE,,
8509,3502 12TH AVENUE,-73.984634,40.644367
8507,43 BEVY COURT,-73.927124,40.593338
9838,715 VANDALIA AVENUE,,
8508,177 BAY 49TH STREET,-73.98727,40.586365
9839,717 VANDALIA AVENUE,,
9850,748 EGAN STREET,,
8520,2488 FULTON STREET,-73.902214,40.67756
9851,750 EGAN STREET,,
8523,5106 AVENUE M,-73.92601,40.621426
9854,756 EGAN STREET,,
8524,2024 EAST 60TH STREET,-73.91694,40.61585
9855,758 EGAN STREET,,
8521,1170 OCEAN PARKWAY,-73.9699,40.619728
9852,752 EGAN STREET,,
8522,526 AVENUE Z,-73.97374,40.585827
9853,754 EGAN STREET,,
220,6521 18TH AVENUE,-73.99033,40.618977
221,485 PACIFIC STREET,-73.98179,40.68495
222,107 MONTAGUE STREET,-73.99511,40.695023
223,427 KNICKERBOCKER AVENUE,-73.91954,40.69949
224,50 1 PLACE,-73.99872,40.680824
225,442 HENRY STREET,-73.99849,40.686077
226,1040 PARK PLACE,-73.943085,40.67303
227,15-17 CLAY STREET,-73.957794,40.73635
228,1249 CONEY ISLAND AVE,-73.96558,40.626965
8516,3117 AVENUE P,-73.94206,40.61405
9847,742 EGAN STREET,,
229,97 WYCKOFF AVENUE,-73.92008,40.70485
8517,2311 PACIFIC STREET,-73.90878,40.67542
9848,744 EGAN STREET,,
8514,1917 EAST 35 STREET,-73.9335,40.61055
9845,729 VANDALIA AVENUE,,
8515,2157 RYDER STREET,-73.92633,40.608604
9846,740 EGAN STREET,,
8518,2058 PACIFIC STREET,-73.91772,40.675896
9849,746 EGAN STREET,,
8519,108A SOMERS STREET,-73.90731,40.679195
8530,10 THROOP AVENUE,-73.94891,40.704582
9861,737 VANDALIA AVENUE,,
8531,30 CLINTON STREET,-73.99156,40.696053
9862,739 VANDALIA AVENUE,,
7200,195 GARFIELD PLACE,-73.97768,40.672626
9860,735 VANDALIA AVENUE,,
7202,441 BAINBRIDGE STREET,-73.91904,40.682354
8534,192 EAST 8TH STREET,-73.972,40.645397
9865,745 VANDALIA AVENUE,,
7201,55 EASTERN PARKWAY,-73.96663,40.672874
8535,2146 RYDER STREET,-73.9265,40.608738
9866,747 VANDALIA AVENUE,,
7204,3728 OCEANIC AVENUE,-74.003845,40.575413
8532,570 WESTMINSTER ROAD,-73.96609,40.634964
9863,741 VANDALIA AVENUE,,
7203,570 EAST 87TH STREET,-73.91251,40.642708
8533,59 CANTON COURT,-73.92223,40.58866
9864,743 VANDALIA AVENUE,,
230,535 FIRST STREET,-73.97465,40.670315
231,456 CONEY ISLAND AVENUE,-73.97098,40.646812
232,321 PACIFIC STREET,-73.987915,40.687336
233,51 JAY STREET,-73.98663,40.70323
234,715 LORIMER STREET,-73.95008,40.718357
235,1619 86TH STREET,-74.00677,40.609753
236,92 BERGEN STREET,-73.98992,40.686504
237,222 PACIFIC STREET,-73.99154,40.688736
238,31-35 SPENCER STREET,-73.95586,40.69802
239,825 DEKALB AVENUE,-73.94344,40.69229
8527,3714 LAUREL AVENUE,-74.00395,40.578205
9858,764 EGAN STREET,,
8528,4113 7TH AVENUE,-74.00076,40.64738
9859,766 EGAN STREET,,
8525,451 BERGEN STREET,-73.9758,40.68102
9856,760 EGAN STREET,,
8526,375 LINCOLN PLACE,-73.96344,40.672916
9857,762 EGAN STREET,,
8529,712 6TH AVENUE,-73.99188,40.659386
8541,125 OCEAN AVENUE,-73.96269,40.65983
9872,759 VANDALIA AVENUE,,
8542,720 EAST 48TH STREET,-73.93149,40.643803
9873,761 VANDALIA AVENUE,,
7211,2416 EAST 71ST STREET,-73.90171,40.614677
9870,755 VANDALIA AVENUE,,
7210,1409 EAST 69TH STREET,-73.91216,40.621872
8540,176 SEELEY STREET,-73.97599,40.6547
9871,757 VANDALIA AVENUE,,
7213,1577 56TH STREET,-73.99018,40.62748
8545,156 PULASKI STREET,-73.94522,40.692825
9876,906 ERSKINE STREET,,
7212,1267 50TH STREET,-73.993454,40.63493
8546,135 WILLOW STREET,-73.995804,40.69738
9877,910 ERSKINE STREET,,
7215,39 PAERDEGAT 12 STREET,-73.90375,40.62831
8543,212 EAST 58TH STREET,-73.922485,40.65021
9874,902 ERSKINE STREET,,
7214,1266 E. 86TH STREET,-73.90224,40.632374
8544,55 DAHLGREN PLACE,-74.02393,40.618183
9875,904 ERSKINE STREET,,
240,215 33RD STREET,-74.00182,40.655483
241,184 STERLING PLACE,-73.97241,40.676598
242,360 FURMAN STREET,-73.99951,40.693253
243,70 CRANBERRY STREET,-73.992874,40.699608
244,35 WYCKOFF AVENUE,-73.922325,40.70625
245,3491 FT HAMILTON PARKWAY,-73.98639,40.64533
246,203 SUTTER AVENUE,-73.91344,40.666676
247,68 NORTH 8TH STREET,-73.9602,40.72029
248,56 GARFIELD PLACE,-73.98239,40.674896
249,124 CONGRESS STREET,-73.997444,40.688812
7206,372 DEKALB AVENUE,-73.963234,40.690002
8538,400 LINCOLN PLACE,-73.963974,40.673016
9869,753 VANDALIA AVENUE,,
7205,177 HERKIMER STREET,-73.94763,40.679535
8539,43 SOUTH 10TH STREET,-73.9665,40.708267
7208,70 LORIMER,-73.9517,40.701626
8536,469 CHAUNCEY STREET,-73.91558,40.682003
9867,749 VANDALIA AVENUE,,
7207,174 ATKINS AVENUE,-73.87906,40.674747
8537,264 6 AVENUE,-73.97957,40.67329
9868,751 VANDALIA AVENUE,,
7209,890 HERKIMER STREET,-73.92399,40.678234
7220,105 SCHENECTADY AVENUE,-73.93325,40.675617
8552,221 EAST 18TH STREET,-73.962395,40.645885
9883,1365 EAST 93 STREET,-73.89944,40.63777
8553,13 TAMPA COURT,-73.94614,40.66098
9884,3008 AVENUE J,-73.946724,40.626785
7222,1311 PACIFIC STREET,-73.94884,40.67761
8550,728 ALABAMA AVENUE,-73.893745,40.658386
9881,1580 EAST 12TH STREET,-73.961494,40.6107
7221,1951 PACIFIC STREET,-73.92392,40.676247
8551,657 PENNSYLVANIA AVENUE,-73.89261,40.6612
9882,570 WESTMINSTER ROAD,-73.96609,40.634964
7224,205 BARBEY STREET,-73.88884,40.67794
8556,159 BAY 35TH,-73.9933,40.596657
9887,53 LEGION STREET,-73.917915,40.667244
7223,155 RIDGEWOOD AVENUE,-73.88308,40.683067
8557,79 AVENUE U,-73.9815,40.59607
9888,1615 AVENUE I,-73.960724,40.6277
7226,185 YORK STREET,-73.98323,40.70138
8554,101 LAFAYETTE AVENUE,-73.97409,40.68726
9885,1916 AVENUE K,-73.95688,40.623234
7225,141 NICHOLS AVENUE,-73.86931,40.687313
8555,44 DICTUM COURT,-73.92786,40.592865
9886,9615 SHORE ROAD,,
250,1546 62ND STREET,-73.99429,40.62441
9880,1913 WEST 8TH STREET,-73.980225,40.600506
251,412 TOMPKINS AVENUE,-73.94388,40.683132
252,368-370 79TH STREET,-74.02718,40.62813
253,276 THROOP AVENUE,-73.94331,40.69489
254,196 NEVINS STREET,-73.98475,40.682995
255,25 PIERREPONT STREET,-73.99645,40.696148
256,161 COLUMBIA HEIGHTS,-73.9965,40.69789
257,509-515 SARATOGA AVENUE,-73.917206,40.668335
258,5118 4 AVENUE,-74.013306,40.645782
259,169 LORIMER STREET,-73.949005,40.703384
7217,1234 EAST 87TH STREET,-73.90202,40.633286
8549,632 LOGAN STREET,-73.87511,40.67039
7216,924 EAST 99TH STREET,-73.89854,40.64424
7219,361 CLINTON AVENUE,-73.96762,40.687202
8547,183 GRAFTON STREET,-73.91797,40.66372
9878,70 REMSEN STREET,-73.99573,40.694386
7218,165 CLINTON AVENUE,-73.968765,40.69294
8548,348 SHEPHERD AVENUE,-73.88132,40.67617
9879,8616 GLENWOOD ROAD,-73.9103,40.64
7231,917 ELTON STREET,-73.87713,40.66071
8563,88 CELESTE COURT,-73.92946,40.594875
9894,5525 AVENUE T,-73.92074,40.613815
7230,695 VAN SICLEN AVENUE,-73.887276,40.662647
8564,3 OAKLAND PLACE,-73.95493,40.647785
9895,494 CHAUNCEY STREET,-73.91235,40.68236
7233,1233 FLATBUSH AVENUE,-73.95533,40.640205
8561,3820 FARRAGUT ROAD,-73.94012,40.636753
9892,97 EBONY COURT,-73.930824,40.594933
7232,245 EAST 26TH STREET,-73.95269,40.643692
8562,229 PENN STREET,-73.95448,40.7047
9893,2865 CROPSEY AVENUE,-73.98656,40.583603
7235,1701 ALBEMARLE ROAD,-73.96349,40.64692
8567,2843 BRIGHTON 7 STREET,-73.962105,40.582455
9898,135 GARFIELD PLACE,-73.97984,40.67367
7234,405 EAST 29TH STREET,-73.94946,40.64071
8568,372 AMBOY STREET,-73.91242,40.66092
9899,1352 EAST 66TH STREET,-73.91508,40.621357
7237,125 OCEAN AVENUE,-73.96269,40.65983
8565,149 MARINE AVENUE,-74.0357,40.616707
9896,647 41ST STREET,-74.001816,40.648193
7236,1050 EAST 38TH STREET,-73.939545,40.629177
8566,307 72ND STREET,-74.02671,40.63347
9897,1963-1971 FLATBUSH AVENUE,-73.936066,40.62187
260,272 HICKS STREET,-73.99691,40.693058
9890,55 EASTERN PARKWAY,-73.96663,40.672874
261,495 ST JOHNS PLACE,,
8560,85 NEWPORT STREET,-73.91218,40.658882
9891,478 EAST 53RD STREET,-73.927055,40.647945
262,803 ROCKAWAY AVE,-73.90808,40.65933
263,20 MONROE PLACE,-73.99239,40.696648
264,2342 ATLANTIC AVENUE,-73.907486,40.67608
265,566 1ST STREET,-73.97388,40.669933
266,90 WYCKOFF STREET,-73.99036,40.685863
267,901 ESSEX STREET,-73.875946,40.662006
268,77 GRAHAM AVENUE,-73.942696,40.7042
269,4202/12 42ND STREET,,
7228,1134 SUTTER AVENUE,-73.87633,40.67215
7227,18 SHERIDAN AVENUE,-73.86801,40.682175
8558,786 WASHINGTON AVENUE,-73.96311,40.674393
9889,1150 EAST 56TH STREET,-73.922005,40.62766
7229,749 NEW JERSEY AVE,-73.89158,40.661255
8559,296 STERLING PLACE,-73.96818,40.675625
7242,60 JAVA STREET,-73.95896,40.731186
8574,443 HICKS STREET,-73.99952,40.68755
7241,68 EATON COURT,-73.9231,40.588528
8575,1262 STERLING PLACE,-73.937004,40.671803
7244,1909 BATCHELDER STREET,-73.93984,40.605034
8572,1048 EAST 98TH STREET,-73.90112,40.64542
7243,26 MONITOR STREET,-73.94167,40.719955
8573,193 CLINTON AVENUE,-73.968605,40.69213
7246,2011 EAST 37TH STREET,-73.93029,40.609962
8578,140 EAST 42ND STREET,-73.9382,40.652443
7245,15 WEST END AVENUE,-73.95365,40.580936
8579,143 EAST 32ND STREET,-73.94727,40.64735
7248,1441 EAST 29TH STREET,-73.94585,40.61596
8576,22 VERMONT STREET,-73.89516,40.68349
7247,1857 EAST 31ST STREET,-73.93755,40.609776
8577,373 NEW JERSEY AVENUE,-73.894325,40.6699
270,446 SENATOR STREET,-74.02172,40.635563
271,1737 EAST 23RD STREET,-73.95011,40.608173
8570,1319 E 86TH STREET,-74.0134,40.613754
272,1121 AVENUE J,-73.96492,40.624798
8571,988 EAST 95TH STREET,-73.90602,40.645866
273,1191 BEDFORD AVENUE,-73.95375,40.682606
7240,1823 SCHENECTADY AVENUE,-73.93074,40.627754
274,52 SOUTH OXFORD STREET,-73.97388,40.68844
275,161 HICKS STREET,-73.99508,40.696873
276,585 PARK PLACE,-73.95844,40.674538
277,1221 AVENUE J,-73.96394,40.62491
278,2012 EAST 3RD STREET,-73.96937,40.60098
279,546 11TH STREET,-73.980995,40.66492
7239,193 E 96TH STREET,-73.92232,40.66187
7238,532 NEW YORK AVENUE,-73.94785,40.661903
8569,513 BRISTOL,-73.90978,40.658413
7253,2469 BRAGG STREET,-73.93467,40.59303
8585,135 REMSEN AVENUE,-73.928665,40.660606
7252,2473 COYLE STREET,-73.935616,40.592854
8586,63 REMSEN AVENUE,-73.93027,40.66205
7255,48 WHIPPLE STREET,-73.944435,40.701458
8583,304 EAST 38TH STREET,-73.941826,40.650482
7254,1313 AVENUE X,-73.95683,40.592026
8584,406 EAST 31ST STREET,-73.94754,40.64088
7257,38 NORWOOD AVENUE,-73.88004,40.685326
8589,27 MELBA COURT,-73.92505,40.587296
7256,9712 FLATLANDS AVENUE,-73.900505,40.64376
7259,1516 EAST 36TH STREET,-73.94006,40.617565
8587,1105 EAST 51ST STREET,-73.92744,40.633625
7258,2 GRACE COURT,-73.99633,40.69402
8588,1427 EAST 45TH STREET,-73.93246,40.625977
280,700 PACIFIC STREET,-73.97188,40.68183
281,65 PINEAPPLE STREET,-73.99397,40.698456
282,103 BROADWAY,-73.96489,40.71042
8581,319 EAST 52ND STREET,-73.92855,40.65295
283,931 STANLEY AVENUE,-73.87506,40.66317
8582,930 RALPH AVENUE,-73.92069,40.651684
284,73 BOND STREET,-73.98425,40.68777
7251,1813 AVENUE V,-73.95298,40.597054
285,123 CONGRESS STREET,-73.997826,40.68893
7250,3805 BEACH 38 STREET,-74.00445,40.57345
8580,541 EAST 38TH STREET,-73.94091,40.64209
286,127 KENT AVENUE,-73.96204,40.72001
287,125 KENT AVENUE,-73.961975,40.720074
288,832 FLUSHING AVENUE,-73.938576,40.701492
289,6508 6TH AVENUE,-74.01706,40.635166
7249,937 EAST 29TH STREET,-73.94814,40.628128
7264,163 OCEAN AVENUE,-73.962555,40.65902
8596,378 SIXTH AVENUE,-73.982475,40.669804
7263,163 OCEAN AVENUE,-73.962555,40.65902
8597,426 63RD STREET,-74.01951,40.63873
7266,3826 CYPRESS AVENUE,-74.006645,40.578598
8594,1439 EAST 64TH STREET,-73.91516,40.61888
7265,8895 26TH AVE,-73.99074,40.591095
8595,4716 AVENUE N,,
7268,3047 BRIGHTON 6TH STREET,-73.96176,40.578445
7267,1010-1012 EAST 84TH STREET,-73.90823,40.635468
8598,29 SOUTH 10 STREET,-73.966705,40.708294
7269,241 WYONA STREET,-73.8932,40.67304
8599,25 OLIVER,-74.03835,40.61973
290,3803 FT HAMILTON PARKWAY,,
291,328 SACKETT STREET,-73.99481,40.682777
292,161 UTICA AVENUE,-73.93067,40.673435
293,315 LIBERTY AVENUE,-73.89799,40.674187
7260,2424 OCEAN AVENUE,-73.95199,40.60241
8592,1627 EAST 56TH STRET,-73.92075,40.616104
294,23 NEWKIRK PLAZA,-73.96274,40.635433
8593,1460 EAST 64TH STREET,-73.915115,40.618824
295,202 WASHINGTON PARK,-73.973434,40.691193
7262,14 PROSPECT PARK SOUTHW,,
8590,2523 OCEAN AVE,-73.95152,40.600025
296,237 KENT STREET,-73.95133,40.7312
7261,1371 EAST 85TH STREET,-73.90109,40.630215
8591,23 PRESCOTT PLACE,-73.92086,40.677776
297,1442 EAST 22ND STREET,-73.95273,40.6169
298,2034 EAST 5 STREET,-73.96744,40.60075
299,100 HUNTINGTON STREET,-74.00271,40.67686
7275,1216 47TH STREET,-73.99268,40.637184
7274,2202 EAST 70TH STREET,-73.90617,40.61758
7277,70 OCEANA DRIVE WEST,-73.9586,40.57691
7276,1311 BRIGHTWATER AVENUE,-73.95556,40.575676
7279,485 HERZL STREET,-73.912544,40.657734
7278,111 HICKS STREET,-73.994446,40.69821
7271,9281 SHORE ROAD,,
7270,8732 BAY 16TH STREET,-74.00991,40.607586
7273,34 GEORGETOWN LANE,-73.91423,40.622635
7272,1932 84TH ST,-73.998474,40.60662
7286,1015 CHURCH AVENUE,-73.97012,40.646683
7285,502 HEGEMAN AVENUE,-73.8929,40.65939
7288,458 EAST 56TH STREET,-73.92391,40.6456
7287,248 STRATFORD ROAD,-73.9685,40.642673
7289,309 EAST 92ND STREET,-73.92339,40.658176
7280,46 PAERDEGAT 2 STREET,-73.91167,40.632404
7282,1570 REMSEN AVENUE,-73.89802,40.63308
7281,1141 EAST 86TH STREET,-73.904305,40.634247
7284,9410 AVENUE N,,
7283,1339 EAST 99TH STREET,-73.891014,40.637497
7297,2145 EAST 37TH STREET,-73.92795,40.607853
7296,1731 EAST 38TH STREET,-73.93473,40.61504
7299,299 13TH STREET,-73.98709,40.66619
7298,2771 MILL AVENUE,-73.91504,40.607185
7291,231 BAY 34TH STREET,-73.99524,40.595932
7290,1688 EAST 49TH STREET,-73.927956,40.619503
7293,76 MINNA STREET,-73.98389,40.64546
7292,14 MONITOR STREET,-73.94161,40.719585
7295,2020 EAST 29TH STREET,-73.943214,40.60201
7294,2024 EAST 28TH STREET,-73.94413,40.60183
3704,345 GRAND AVENUE,-73.962234,40.685566
3705,65 CLIFTON PLACE,-73.96149,40.687965
3706,550 SAINT MARKS AVENUE,-73.95738,40.676197
3707,431 EASTERN PARKWAY,-73.954056,40.67028
3708,1268 PROSPECT PLACE,-73.93445,40.67346
3709,1525 ST JOHNS PLACE,,
3700,4621 13TH AVENUE,-73.99052,40.636562
3701,786 KNICKERBOCKER AVENUE,-73.90767,40.692722
3702,100 MOFFAT STREET,-73.90823,40.685677
3703,287 COOPER STREET,-73.90392,40.691277
3715,2437 PITKIN AVENUE,-73.882416,40.673893
3716,455 MARLBOROUGH ROAD,-73.96397,40.63882
3717,2322 BEDFORD AVENUE,-73.95572,40.64749
3718,1022 EAST 32ND STREET,-73.94484,40.626347
3719,163 OCEAN AVENUE,-73.962555,40.65902
3710,1636 CARROLL STREET,-73.93304,40.66621
3711,7701 10TH AVENUE,-74.01528,40.623085
3712,7818 10TH AVENUE,-74.01597,40.622448
3713,8411 10TH AVENUE,-74.0194,40.61912
3714,6810 11TH AVENUE,-74.00792,40.62674
3726,100 ENGERT AVENUE,-73.94751,40.721416
3727,2414 KINGS HIGHWAY,-73.94979,40.61246
3728,1649 EAST 21ST STREET,-73.95282,40.612423
3729,1802 OCEAN AVENUE,-73.95495,40.618034
3720,1285 NOSTRAND AVENUE,-73.95008,40.655643
3721,214 11TH STREET,-73.990616,40.66957
3722,56 16TH STREET,-73.99345,40.666714
3723,2424 BENSON AVENUE,-73.990486,40.597137
3724,210 HIGHLAWN AVENUE,-73.97816,40.603542
3725,20 DIVISION PLACE,-73.93994,40.720356
2405,1458 50TH STREET,-73.989235,40.632362
3737,135 PROSPECT PARK WEST,-73.976555,40.664967
2404,543 16TH STREET,-73.97734,40.65894
3738,34 PLAZA STREET,-73.96932,40.675117
2403,413 BERGEN STREET,-73.97753,40.68169
3739,240 PROSPECT PLACE,-73.968414,40.677567
2402,160 WEST STREET,-73.95972,40.732616
2401,207 BAY 17TH STREET,,
2400,402 PUTNAM AVENUE,-73.94532,40.68457
3730,183 PARK AVENUE,-73.97206,40.696205
3731,907 JEFFERSON AVE,-73.922325,40.686474
3732,158 HULL STREET,-73.90949,40.67969
2409,728A HUMBOLDT STREET,-73.945595,40.72657
3733,336 AVENUE W,,
2408,236 RUTLAND ROAD,-73.952736,40.65926
3734,2446 EAST 3RD STREET,-73.96734,40.590252
2407,201 VERONICA PLACE,-73.95259,40.645473
3735,2518 WEST 1ST STREET,-73.970665,40.587826
2406,695 EAST 17TH STREET,-73.96107,40.63369
3736,326 AVENUE U,-73.97223,40.597084
3750,317 22ND STREET,-73.99132,40.659176
2416,343 LEONARD STREET,-73.94803,40.71605
3748,668 59TH STREET,-74.0119,40.637848
2415,277 21ST STREET,-73.99204,40.660526
3749,263 19TH STREET,-73.99137,40.66194
2414,85 6TH AVENUE,-73.974945,40.679882
2413,134 ST. MARKS PLACE,-73.97875,40.68135
2412,1598 EASTERN PARKWAY,-73.91582,40.671177
2411,191 JAFFRAY STREET,-73.94265,40.57834
2410,486 GRAHAM AVENUE,-73.94583,40.719883
3740,2164 EAST 19TH STREET,-73.95236,40.59792
3741,2500 EAST 21ST STREET,-73.94888,40.5916
3742,2514 EAST 27TH STREET,-73.94301,40.590942
3743,2718 EAST 21ST STREET,-73.94781,40.585915
3744,228 20TH STREET,-73.99332,40.662193
2419,648 2ND STREET,-73.97432,40.669304
3745,470 42ND STREET,-74.006386,40.650017
2418,15 ROEBLING STREET,-73.95308,40.718197
3746,766 46TH STREET,-74.00217,40.643826
2417,77 KINGSLAND AVENUE,-73.940544,40.71892
3747,713 49TH STREET,-74.00492,40.64277
3760,163 OCEAN AVENUE,-73.962555,40.65902
3761,255 SENATOR STREET,-74.02682,40.637695
2430,1943 79TH STREET,-73.99537,40.609314
2427,413 EAST 4TH STREET,-73.97614,40.64174
3759,1358 81ST STREET,-74.0097,40.616135
2426,1562 EAST 14TH STREET,-73.95972,40.611294
2425,713 EAST NEW YORK AVENUE,-73.93908,40.662296
2424,8108 13TH AVENUE,-74.011055,40.616825
2423,168 EVERGREEN AVENUE,-73.93108,40.699085
2422,24 BAY 23RD STREET,,
2421,706 UNION STREET,-73.98002,40.676235
2420,286 MANHATTAN AVENUE,-73.9459,40.71336
3751,199 29TH STREET,-73.999725,40.65786
3752,338 44TH STREET,-74.0103,40.65056
3753,259 21ST STREET,-73.992584,40.66085
3754,MESEROLE STREET,,
3755,138 N. 3RD STREET,-73.96101,40.716118
3756,99 HAVEMEYER STREET,-73.95636,40.71345
2429,1350 42ND STREET,-73.98692,40.638268
3757,181 SEELEY STREET,-73.97589,40.65475
2428,255 1ST STREET,-73.98387,40.674778
3758,18 HORACE COURT,-73.97624,40.656036
3770,1779 WEST 7TH STREET,-73.979904,40.603825
3771,128 NEWTON STREET,-73.94675,40.72064
3772,2975 AVENUE U,-73.94004,40.60064
1110,3901 7 AVENUE,-73.99956,40.648563
2441,20 BROADWAY,-73.96799,40.71076
2440,387 PARK PLACE,-73.96509,40.675934
1107,648 BERGEN STREET,-73.96774,40.679314
2438,1515 77TH STREET,-74.00379,40.616222
1106,262 13TH STREET,-73.988655,40.66693
2437,632 MONROE STREET,-73.93171,40.687637
1105,354 10TH STREET,-73.987305,40.668816
2436,625 FRANKLIN AVENUE,-73.955635,40.6771
1104,643 DE GRAW STREET,-73.98182,40.67855
2435,400 PUTNAM AVENUE,-73.94539,40.684563
1103,1665 OCEAN AVENUE,-73.95557,40.6214
2434,70 LORIMER STREET,-73.9517,40.701626
1102,1673 OCEAN AVENUE,-73.955536,40.621223
2433,1521 76TH STREET,-74.0031,40.61671
1101,1102 EAST 26TH STREET,-73.950165,40.623737
2432,277 AINSLIE STREET,-73.94276,40.713223
1100,344 MC GUINNESS BLVD,-73.95218,40.734116
2431,145 HICKS STREET,-73.9949,40.69725
3762,8515 10TH AVENUE,-74.02002,40.618534
3763,149 CONSELYEA STREET,-73.94508,40.71518
3764,3120 GLENWOOD ROAD,-73.94657,40.634068
3765,1456 72ND STREET,-74.00221,40.619946
3766,1495 LINCOLN PLACE,-73.92702,40.669525
3767,1581 PACIFIC STREET,-73.93847,40.677044
1109,694A 6 AVENUE,-73.99148,40.659775
3768,1122 HANCOCK STREET,-73.91342,40.689938
1108,371 VAN BRUNT STREET,-74.01386,40.676525
2439,328 ARGYLE ROAD,-73.96639,40.64154
3769,2901 FARRAGUT ROAD,-73.948906,40.63622
3780,105 LEXINGTON AVENUE,-73.958115,40.686855
3781,1657 CROPSEY AVENUE,-74.01051,40.604248
3782,321 BAY 11TH STREET,,
3783,1866 81ST STREET,-73.9982,40.609188
1121,223 EAST 8TH STREET,-73.97188,40.644833
2452,916 PUTNAM AVENUE,-73.92521,40.686882
1120,549 51ST STREET,-74.00982,40.643898
2451,248 79TH STREET,-74.03034,40.628883
2450,40 RUTHERFORD PLACE,-74.005844,40.60562
1118,995 PACIFIC STREET,-73.96074,40.679512
2449,398 WESTMINSTER ROAD,-73.96689,40.639175
1117,1601 11TH AVENUE,-73.975685,40.658066
2448,288 19TH ST,-73.990555,40.661434
1116,623 AVENUE H,-73.970795,40.629036
2447,1835 84TH STREET,-74.00054,40.607887
1115,462 WESTMINSTER ROAD,-73.96656,40.637444
2446,299 EAST 5TH STREET,-73.97584,40.645172
1114,248 ST. MARKS AVENUE,-73.96773,40.678368
2445,7 VIRGINIA PLACE,-73.93998,40.67275
1113,85-101 NORTH 3RD,-73.962555,40.717094
2444,298 SCHAEFER,-73.90534,40.692196
1112,65 DEVOE STREET,-73.94851,40.713398
2443,209 BAY 17TH STREET,,
1111,732 5 AVENUE,-73.994804,40.66003
2442,3902 NEW UTRECHT AVENUE,-73.994514,40.645496
3773,3372 BEDFORD AVENUE,-73.95047,40.62017
3774,2308 DEAN STREET,-73.91127,40.674763
3775,19 PROSPECT PARK WEST,-73.971375,40.6712
3776,135 EASTERN PARKWAY,-73.96464,40.672344
3777,357 45TH STREET,-74.01046,40.649754
3778,452 BAINBRIDGE STREET,-73.918816,40.68237
3779,1815 AVENUE W,,
1119,224 78 STREET,-74.030594,40.629745
3790,385 JEFFERSON AVENUE,-73.94249,40.68416
3791,94 BAY 11TH STREET,,
3792,701 LAFAYETTE AVENUE,-73.94498,40.690617
3793,14 COVERT STREET,-73.913345,40.685253
3794,60 TIFFANY PLACE,-74.00108,40.686306
1132,444 12TH STREET,-73.98164,40.66439
2463,1556 62ND STREET,-73.9941,40.624294
1131,1621 PARK PLACE,-73.92354,40.671974
2462,1331 48TH STREET,-73.99079,40.635143
1130,389 7TH STREET,-73.98342,40.669487
2461,5505 11TH AVENUE,-74.00008,40.63426
2460,2014 57TH STREET,-73.980736,40.62076
1129,175 HURON STREET,-73.954254,40.73308
1128,14 CARROLL STREET,-74.00525,40.68349
2459,4812 17TH AVENUE,-73.98253,40.62998
1127,233 PACIFIC STREET,-73.99132,40.688667
2458,2446 85TH STREET,-73.98773,40.59922
1126,363 GATES AVENUE,-73.95264,40.68599
2457,1712 74TH STREET,-73.997314,40.61517
1125,56 DOWNING STREET,-73.96098,40.684086
2456,1529 71ST STREET,-74.00014,40.619617
1124,119 POWERS STREET,-73.946144,40.712185
2455,1948 85TH STREET,-73.99876,40.60588
1123,6415 18TH AVENUE,-73.989685,40.619614
2454,7012 17TH AVE,-73.99553,40.617573
1122,589 HICKS,-74.00176,40.68294
2453,261 STUYVESANT AVENUE,-73.932594,40.6857
3784,1364 65TH STREET,-74.000145,40.625145
3785,131 ROCKAWAY PARKWAY,-73.92265,40.663403
3786,2906 86 STREET,-73.97596,40.59113
3787,2104 GLENWOOD RD,-73.95661,40.633022
3788,497 MCDONALD AVENUE,-73.97928,40.64198
3789,195 CLASSON AVE,-73.96116,40.694347
1143,30 MAIN STREET,-73.99053,40.702885
2474,1048 BAY RIDGE PARKWAY,,
1142,85 DOUGLASS STREET,-73.992,40.683308
2473,42 MAIN STREET,-73.99054,40.702744
1141,154 NELSON STREET,-73.999275,40.676636
2472,2937 ATLANTIC AVENUE,-73.885796,40.677647
1140,CARROLL STREET,,
2471,1079 CARROLL STREET,-73.95434,40.667385
2470,100 COVERT STREET,-73.91082,40.687813
1139,1344 EAST 23RD STREET,-73.95195,40.617783
1138,169 EAGLE STREET,-73.95411,40.735256
2469,37 SCHAEFER STREET,-73.9125,40.684925
1137,67 SEELEY STREET,-73.979385,40.65339
2468,1511 DEKALB AVENUE,-73.92158,40.701935
1136,51 DRIGGS AVENUE,-73.9409,40.723396
2467,24 PILLING STREET,-73.90868,40.68283
1135,366 MONTGOMERY STREET,-73.952545,40.66548
2466,157 HICKS STREET,-73.99504,40.696968
1134,467 ST. JOHNS PLACE,-73.9623,40.67346
2465,105 OCEANA DRIVE EAST,-73.957634,40.576847
1133,3804 ATLANTIC AVENUE,-74.00462,40.573532
2464,1119 OCEANVIEW AVENUE,-73.95566,40.57945
3795,1311 UNION STREET,-73.948746,40.66885
3796,1152 77TH STREET,-74.01189,40.6211
3797,218 AVENUE W,-73.9751,40.592167
3798,19 APOLLO STREET,-73.93776,40.724922
3799,83 CLARA STREET,-73.98294,40.643406
1154,621 EAST 19TH STREET,-73.95944,40.63538
2485,293 14TH STREET,-73.98736,40.665474
1153,29 PROSPECT PARK SOUTHW,,
2484,420 12TH STREET,-73.98244,40.664772
1152,475 GRAND STREET,-73.95209,40.711063
2483,541 8 STREET,-73.978264,40.66615
1151,383 UNION AVENUE,-73.951294,40.711975
2482,421 THIRD STREET,-73.98141,40.671898
1150,209 JACKSON STREET,-73.94223,40.716892
2481,1418 EAST 2ND STREET,-73.973114,40.615223
2480,1723 OCEAN PARKWAY,-73.966866,40.60664
1149,47 WOLCOTT STREET,-74.0112,40.676167
1148,616 PRESIDENT STREET,-73.98132,40.67594
2479,119 RALPH AVENUE,-73.92334,40.686096
1147,2311 EAST 4TH STREET,-73.96704,40.59374
2478,3523 BEDFORD AVENUE,-73.949715,40.616226
1146,1185 EAST 8TH STREET,-73.96721,40.620167
2477,243 EAST 5TH STREET,-73.97612,40.646637
1145,533 LEONARD,-73.94946,40.72322
2476,176 KINGSLAND AVENUE,-73.94118,40.72284
1144,94 GUERNSEY STREET,-73.95322,40.72449
2475,1583 WEST 5TH STREET,-73.9788,40.608746
1165,315 6TH STREET,-73.98523,40.67121
2496,91 METROPOLITAN AVENUE,-73.963684,40.716938
1164,5620 CLARENDON ROAD,-73.92358,40.644814
2495,294 NORTH 6TH STREET,-73.954216,40.714718
1163,72 87TH STREET,-74.03758,40.6242
2494,174 JACKSON STREET,-73.94404,40.71671
1162,106 DUPONT STREET,-73.95575,40.73581
2493,20 HARRISON PLACE,-73.9327,40.70622
1161,32 VANDERBILT AVENUE,-73.970245,40.695156
2492,749 60TH STREET,-74.01067,40.636173
1160,30 VANDERBILT AVENUE,-73.970245,40.695187
2491,637 56TH STREET,-74.01075,40.639904
2490,562 58TH STREET,-74.01363,40.63981
1159,230 78TH STREET,-74.03046,40.62971
1158,578 MYRTLE AVENUE,-73.96134,40.693974
2489,576 60TH STREET,-74.01456,40.638508
1157,37 TERRACE PLACE,-73.98023,40.653893
2488,611 59TH STREET,-74.012985,40.63852
1156,613 BALTIC STREET,-73.98062,40.68049
2487,672 57TH STREET,-74.01066,40.638924
1155,42 FULLER PLACE,-73.979744,40.658573
2486,421 37TH STREET,-74.00443,40.653416
1176,614 LORIMER STREET,-73.94957,40.715332
1175,111 SOUTH 4TH STREET,-73.96367,40.712173
1174,35 PROSPECT PARK WEST,-73.972176,40.670208
1173,95 4TH AVENUE,-73.980354,40.681377
1172,18 VANDERBILT AVENUE,-73.97028,40.69537
1171,28 VANDERBILT AVENUE,-73.97025,40.695217
1170,26 VANDERBILT AVENUE,-73.97026,40.695248
1169,207 WYCKOFF STREET,-73.986145,40.684235
1168,581 MACON STREET,-73.928085,40.683567
2499,133 EAST 2ND STREET,-73.97932,40.648514
1167,25 JORALEMON STREET,-73.99859,40.69378
2498,154 SEELEY STREET,-73.97682,40.654373
1166,205 WYCKOFF AVENUE,-73.91613,40.70238
2497,125 SOUTH 1ST STREET,-73.96241,40.714172
1187,144 SUMMIT STREET,-74.003265,40.68217
1186,1738 60 ST,-73.98859,40.622818
1185,1155 46 STREET,-73.993416,40.63855
1184,1222 49TH STREET,-73.99374,40.635994
1183,160 SMITH STREET,-73.99078,40.68627
1182,7102 20TH AVENUE,-73.989456,40.61307
1181,7508 BAY PARKWAY,-73.98753,40.60799
1180,71 QUINCY STREET,-73.958305,40.686085
1179,861 LAFAYETTE AVE,-73.93785,40.691437
1178,459 CLASSON AVENUE,-73.95922,40.684956
1177,116 82ND STREET,-74.03558,40.627724
1190,932 PACIFIC STREET,-73.96281,40.67993
9910,2353 BOYNTON PLACE,-73.97649,40.590515
1198,1200 UTICA AVENUE,-73.9295,40.64337
1197,220 EAST 23RD STREET,-73.95561,40.643814
1196,1118 CORTELYOU,-73.96771,40.639736
1195,110 LIVINGSTON STREET,-73.98962,40.69108
1194,349 ARLINGTON AVENUE,-73.88151,40.68131
1193,1156 DEAN STREET,-73.951385,40.676952
1192,486 PROSPECT PLACE,-73.960495,40.675907
1191,814 DEAN STREET,-73.96305,40.679157
9908,80 ABBEY COURT,-73.922066,40.589466
9909,2543 WEST 16TH STREET,-73.98511,40.58557
1189,325 EMPIRE BOULEVARD,-73.95155,40.663876
1188,930 ST MARKS AVENUE,-73.94134,40.674725
9902,2932 WEST 5 STREET,-73.97242,40.57797
9903,464 NEPTUNE AVE,-73.97075,40.579803
9900,1453 EAST 69,-73.912056,40.621773
9901,487 POWELL STREET,-73.90207,40.66237
9906,80 WINTHROP STREET,-73.957565,40.65664
9907,1596 EAST 46TH STREET,-73.931046,40.621334
9904,2925 WEST 5TH STREET,-73.97237,40.578094
9905,278 MILFORD STREET,-73.8766,40.67256
9920,276 SNEDIKER AVENUE,-73.900635,40.667942
9921,636 BELMONT AVENUE,-73.885994,40.67204
9919,121 EUCLID AVENUE,-73.87473,40.685646
1199,2001 NOSTRAND AVENUE,-73.948074,40.636906
9913,1489 EAST 8TH STREET,-73.96579,40.61267
9914,1501 EAST 52ND STREET,-73.92534,40.622875
9911,1717 EAST 18 STREET,-73.95522,40.60804
9912,2120 OCEAN AVENUE,-73.95346,40.610188
9917,339 BEDFORD AVENUE,-73.96267,40.712326
9918,7101 COLONIAL ROAD,-74.03205,40.635418
9915,925 UNION STREET,-73.97268,40.673386
9916,2800 COYLE STREET,-73.934204,40.58531
8600,40 CLINTON STREET,-73.99164,40.695908
9931,2016 EAST 72ND STREET,-73.908035,40.621452
8601,1656 EAST 91ST STREET,-73.89497,40.631535
9932,117 S. 8TH STREET,-73.99117,40.67239
9930,307 PROSPECT PLACE,-73.96648,40.677174
300,3902 7 AVENUE,-73.99958,40.64856
301,187 7 AVENUE,-73.97801,40.671158
302,85 WYCKOFF ST,-73.99033,40.685863
303,271 HICKS STREET,-73.9968,40.693253
304,109 COLUMBIA HEIGHTS,-73.99586,40.69929
305,1078 PARK PLACE,-73.942085,40.672977
9924,720 LIBERTY AVE,-73.883156,40.676376
306,1412 WEST 4TH STREET,-73.97844,40.611824
9925,2517 BATH AVENUE,-73.990456,40.594048
307,147 GRAND STREET,-73.96209,40.714832
9922,1321 EAST 85TH STREET,-73.90187,40.630913
308,371 1 STREET,-73.98047,40.673134
9923,179 OCEAN PARKWAY,-73.97435,40.645824
309,440 SENATOR STREET,-74.02185,40.63562
9928,444 NEPTUNE AVENUE,-73.96998,40.579895
9929,115 ASHLAND PLACE,-73.97899,40.69228
9926,388 EAST 94 STREET,-73.919815,40.65715
9927,1324 EAST 103RD STREET,-73.88836,40.639553
8611,2042 EAST 72ND STREET,-73.90767,40.621124
9942,606 LOUISIANA AVENUE,-73.88632,40.648
8612,1635 42ND STREET,-73.980515,40.63441
9943,451 CLINTON AVENUE,-73.967155,40.684856
9940,10219 AVENUE L,-73.89126,40.64129
8610,345 EAST 32ND STREET,-73.94674,40.64231
9941,10219 SEAVIEW AVENUE,-73.88577,40.636345
310,377 PACIFIC STREET,-73.98582,40.68652
311,763 GREENE AVENUE,-73.93773,40.689953
312,308 ATLANTIC AVENUE,-73.98846,40.688335
313,131 LINCOLN PLACE,-73.975716,40.676174
314,48 TOMPKINS PLACE,-73.995804,40.68493
315,2818 FOSTER AVENUE,-73.94995,40.6385
316,959 EAST 8 ST,-73.96827,40.625786
8604,74 CANTON COURT,-73.92256,40.588974
9935,35 SEACOAST TERRACE,-73.956635,40.576668
317,251 POWERS STREET,-73.93993,40.712917
8605,1515 EAST 56 STREET,-73.92101,40.618587
9936,3034 BRIGHTON 1ST STREET,-73.96688,40.577736
318,985 PARK PLACE,-73.94526,40.67316
8602,230 JAY STREET,-73.987015,40.69792
9933,305-307 PROSPECT PLACE,-73.96654,40.677185
319,221 HAVEMEYER STREET,-73.95903,40.709255
8603,503 EAST 46TH STREET,-73.934044,40.64954
9934,35 SEACOAST TERRACE,-73.956635,40.576668
8608,2567 EAST 14TH STREET,-73.95541,40.588615
9939,9601 FARRAGUT ROAD,-73.90472,40.646164
8609,643 EAST 57TH STREET,-73.92199,40.636837
8606,8 VANDERBILT AVENUE,-73.970314,40.695522
9937,135 WILLOW STREET,-73.995804,40.69738
8607,4401 4TH AVENUE,-74.009125,40.64978
9938,70 CLARK STREET,-73.9935,40.697586
9950,2524 ALBEMARLE ROAD,-73.9538,40.64795
8622,225 ADAMS STREET,-73.9885,40.69722
9953,1818 NEWKIRK AVENUE,-73.96047,40.636898
8623,1108 LIBERTY AVENUE,-73.86848,40.678497
9954,560 EAST 31ST STREET,-73.94709,40.63677
8620,601 SURF,-73.97449,40.57497
9951,45 MARTENSE STREET,-73.957054,40.651318
8621,58 SHEPHERD AVENUE,-73.882706,40.68359
9952,415 ARGYLE ROAD,-73.965904,40.63907
320,75A BOND STREET,-73.98429,40.687714
321,1718 86TH STREET,-74.00433,40.608273
322,75 BOND STREET,-73.984276,40.68774
323,2225 65TH STREET,-73.98076,40.61344
324,5 WYTHE LANE,-73.965706,40.713013
325,1953 EAST 1ST STREET,-73.97119,40.600666
326,77 BOND STREET,-73.9843,40.687706
327,268 HENRY STREET,-73.995544,40.692196
8615,17 BELVEDERE STREET,-73.93714,40.698456
9946,616 WILLIAMS AVENUE,-73.89686,40.660656
328,1357 DEKALB AVENUE,-73.92456,40.6989
8616,10016 FLATLANDS AVE,-73.89818,40.645264
9947,494 ELTON STREET,-73.88266,40.67083
329,111 PARK PLACE,-73.974846,40.678352
8613,1244 47TH STREET,-73.99216,40.636864
9944,2942 WEST 5TH STREET,-73.97247,40.577812
8614,75 HENRY STREET,-73.99222,40.699093
9945,464 NEPTUNE AVENUE,-73.97075,40.579803
8619,2863 WEST 22 STREET,-73.98918,40.57706
8617,165 CLINTON AVENUE,-73.968765,40.69294
9948,512 SCHENCK AVENUE,-73.88727,40.668083
8618,2862 WEST 35TH STREET,-74.00085,40.575745
9949,673 PENNSYLVANIA AVENUE,-73.89239,40.660904
9960,1615 AVENUE I,-73.960724,40.6277
8630,231 NORMAN AVENUE,-73.94428,40.72754
9961,1389 EAST 18TH STREET,-73.95682,40.616425
7301,2507 EAST 23RD STREET,-73.9468,40.59067
8633,1524 EAST 12TH STREET,-73.96172,40.611923
9964,3709 MAPLE AVENUE,-74.00409,40.579586
7300,4001 SEA GATE AVENUE,,
8634,2509 ATLANTIC AVENUE,-73.90142,40.675755
9965,1625 EMMONS AVENUE,-73.952126,40.583294
7303,3411 GUIDER AVENUE,-73.95871,40.58291
8631,3402 FILLMORE AVENUE,-73.93455,40.610485
9962,981 EAST 2ND STREET,-73.97511,40.626354
7302,2455 BRIGHAM STREET,-73.933876,40.593872
8632,2216 RYDER STREET,-73.92515,40.60752
9963,1604 EAST 54TH STREET,-73.92293,40.61841
330,283 DEVOE STREET,-73.938126,40.713856
331,183 PLYMOUTH STREET,-73.98625,40.70375
332,54 1ST PLACE,-73.99858,40.680782
333,167 SIXTH AVENUE,-73.97692,40.676968
334,23 SOUTH PORTLAND AVE,-73.97493,40.688816
335,2339 NOSTRAND AVENUE,-73.94705,40.627735
336,1086 MYRTLE AVENUE,-73.93726,40.696747
337,129 SMITH STREET,-73.98996,40.687473
338,6 WILLOW PLACE,-73.9977,40.693428
8626,236 HAWTHORNE STREET,-73.95231,40.65771
9957,1541 WEST 3RD STREET,-73.97712,40.609867
339,118 LAFAYETTE AVENUE,-73.97276,40.6874
8627,337 LENOX ROAD,-73.948715,40.654236
9958,2483 WEST 16TH STREET,-73.98527,40.58643
8624,703 JEROME STREET,-73.88338,40.66331
9955,509 EAST 54TH STREET,-73.92589,40.646282
8625,479 EAST 43RD STREET,-73.93627,40.643337
9956,1075 EAST 51ST STREET,-73.927475,40.633995
8628,1853 SCHENECTADY AVENUE,-73.93067,40.62707
9959,2260 HENDRICKSON ST,-73.92232,40.60829
8629,62 NORMAN AVENUE,-73.95288,40.72505
8640,2133 BROWN STREET,-73.93982,40.599888
9971,135 WILLOW STREET,-73.995804,40.69738
8641,115 8 AVENUE,-73.9737,40.67239
9972,35 SEACOAST TERRACE,-73.956635,40.576668
7310,622 TROY AVENUE,-73.93694,40.65855
9970,14 HAVENS PLACE,-73.90429,40.676964
7312,34 PLAZA STREET EAST,-73.96932,40.675117
8644,165 DECATUR STREET,-73.93656,40.681095
9975,2159 HENDRICKSON STREET,-73.92415,40.609955
7311,12 MCGUINNESS BOULEVARD,-73.94718,40.7231
8645,661 41ST STREET,-74.00156,40.648033
9976,114 RIVERDALE AVENUE,-73.91285,40.660366
7314,284 EAST 40TH STREET,-73.93994,40.650436
8642,1620 EAST 4TH STREET,-73.97034,40.61106
9973,291 MARTENSE STREET,-73.94927,40.651726
7313,970 41ST STREET,-73.994896,40.64399
8643,14 PROSPECT PARK SOUTHW,,
9974,125 HAWTHORNE STREET,-73.95595,40.657497
340,4028 18TH AVENUE,-73.97356,40.632458
341,477 AVENUE T,-73.96772,40.599895
342,296 ST. NICHOLAS AVENUE,-73.91132,40.70142
343,373 BERGEN STREET,-73.97874,40.682156
344,927 PUTNAM AVENUE,-73.92433,40.686993
345,92 FIRST PLACE,-73.99726,40.680412
346,414-426 CHURCH AVENUE,-73.976395,40.644073
347,79 BOND STREET,-73.98432,40.687675
348,1722 54TH STREET,-73.9851,40.626213
349,319 PRESIDENT STREET,-73.993286,40.680466
7305,32 MASPETH AVENUE,-73.941925,40.71517
8637,1339 EAST 59TH STREET,-73.91841,40.62092
9968,852 ELTON STREET,-73.8784,40.66239
7304,5008 7TH AVENUE,-74.006004,40.642365
8638,2026 EAST 67TH STREET,-73.91153,40.61891
9969,1488 HERKIMER STREET,-73.904526,40.67717
7307,236 SOUTH FIRST STREET,-73.95801,40.71255
8635,67 LAWRENCE AVENUE,-73.97619,40.629414
9966,47 REEVE PLACE,-73.97467,40.653286
7306,196 SOUTH 2ND STREET,-73.959915,40.71247
8636,260 OCEAN PARKWAY,-73.97434,40.643032
9967,7401 SHORE ROAD,,
7309,9001 FARRAGUT ROAD,-73.90919,40.643276
7308,47 BUFFALO AVENUE,-73.92474,40.67737
8639,400 LINCOLN PLACE,-73.963974,40.673016
8651,526 92ND STREET,-74.02853,40.617504
9982,8701 SHORE ROAD,,
8652,1363 EAST 58TH STREET,-73.91937,40.6211
9983,200 CORBIN PLACE,-73.95386,40.576656
7321,598 CHESTER STREET,-73.90855,40.65727
9980,821 ALBANY AVENUE,-73.939316,40.65387
7320,1710 AVENUE H,-73.96025,40.630184
8650,1411 AVENUE X,-73.955925,40.592125
9981,80 AVENUE P,-73.985756,40.607407
7323,1406 EAST 89TH STREET,-73.89739,40.631332
8655,195 ADAMS STREET,-73.98846,40.698074
9986,460 NEPTUNE AVENUE,-73.97059,40.579815
7322,9 PAERDEGAT 10TH STREE,-73.90562,40.62876
8656,264 WAKEMAN PLACE,-74.02554,40.638645
9987,460 NEPTUNE AVE,-73.97059,40.579815
7325,105-64 AVENUE M,,
8653,20 8TH AVENUE,-73.97196,40.674965
9984,70 REMSEN STREET,-73.99573,40.694386
7324,1361 EAST 95TH STREET,-73.898125,40.63879
8654,1345 EAST 65TH STREET,-73.91616,40.621094
9985,216 BRISTOL STREET,-73.911835,40.6664
350,200 WATER STREET,-73.985756,40.703064
351,895 OCEAN PARKWAY,-73.970695,40.626747
352,848 CARROLL STREET,-73.97287,40.671844
353,160 STATE STREET,-73.99366,40.690784
354,107 SOUTH OXFORD STREET,-73.973465,40.68638
355,205 CONGRESS STREET,-73.99488,40.688107
356,1425 KINGS HIGHWAY,-73.95891,40.608494
357,265 STATE STREET,-73.98807,40.689
358,7702 FLATLANDS AVENUE,-73.9154,40.63413
359,72 POPLAR STREET,-73.99223,40.7009
7316,111 SOUTH 3RD STREET,-73.96324,40.712784
8648,1448 EAST 98TH STREET,-73.89298,40.638107
9979,273 NOSTRAND AVENUE,-73.951355,40.68936
7315,2328 BRIGHAM ST,-73.93429,40.595966
8649,577 EAST 28TH STREET,-73.94998,40.63678
7318,55 EASTERN PARKWAY,-73.96663,40.672874
8646,6801 SHORE ROAD,,
9977,2083 PACIFIC STREET,-73.91834,40.67594
7317,1298 HALSEY STREET,-73.90732,40.693764
8647,1328 EAST 86TH STREET,-73.90102,40.631275
9978,31 THOMAS S BOYLAND STR,-73.914665,40.683926
7319,558 VAN SICLEN AVENUE,-73.8886,40.665977
10,633-635 FULTON ST,,
11,74 ADAMS STREET,-73.98856,40.702118
7330,1630 BROOKLYN AVENUE,-73.94192,40.633465
8662,83 DE SALES PLACE,-73.90428,40.682564
9993,179 OCEAN PARKWAY,-73.97435,40.645824
12,97 COLUMBIA HEIGHTS,-73.99563,40.699764
8663,604 E 79TH STREET,-73.91744,40.638046
9994,527 8TH STREET,-73.97836,40.666195
13,475 KENT AVENUE,-73.968414,40.707623
6001,1524 EAST 29TH STREET,-73.94545,40.6138
7332,97 SOMERS ST,-73.90891,40.679024
8660,2103 76TH STREET,-73.989975,40.608784
9991,984 UTICA AVENUE,-73.93009,40.64899
14,1501 PITKIN,-73.91819,40.668587
6000,1713 AVENUE T,-73.954765,40.601322
7331,149 LAFAYETTE AVENUE,-73.97181,40.687527
8661,1513 ROYCE STREET,-73.9075,40.623493
9992,9 SOUTH OXFORD STREET,-73.973976,40.68901
15,1098 ROCKAWAY AVENUE,-73.9066,40.653473
6003,1763 COLEMAN STREET,-73.93208,40.615974
7334,4634 BEACH 46TH STREET,-74.010956,40.57629
8666,1148 EAST 94TH STREET,-73.90291,40.641968
9997,2546 EAST 13TH STREET,-73.95636,40.588688
16,15 HOYT STREET,-73.98538,40.690144
6002,1638 KIMBALL STREET,-73.935005,40.617477
7333,233 PARK PLACE,-73.97028,40.67702
8667,607 REMSEN AVENUE,-73.91899,40.651928
9998,35 MC DONALD AVENUE,-73.98162,40.65433
17,280 CADMAN PLAZA WEST,-73.99112,40.696068
6005,1052 EAST 29TH STREET,-73.94764,40.62541
7336,3702 SHORE PARKWAY,-73.938736,40.58546
8664,1150 EAST 89TH STREET,-73.90208,40.635536
9995,1410 AVENUE S,,
18,626 BUSHWICK AVENUE,-73.93361,40.69805
6004,2106 STUART STREET,-73.93586,40.603653
7335,2173 BROWN STREET,-73.93968,40.599155
8665,1355 EAST 89TH STREET,-73.89845,40.6323
9996,1759 EAST 46TH STREET,-73.930664,40.617706
19,81 PROSPECT STREET,-73.98796,40.700676
360,1005-1009 BEDFORD AVENUE,-73.955154,40.68964
9990,70 LENOX ROAD,-73.957275,40.653706
361,5022 15TH AVENUE,-73.98846,40.631657
362,1502 46TH STREET,-73.985756,40.633915
363,194 ST JOHNS PLACE,-73.97376,40.676308
364,31 WASHINGTON STREET,-73.98948,40.70334
365,114 WESTMINSTER ROAD,-73.96816,40.645912
366,423 3 STREET,-73.981346,40.671867
367,5205 5 AVENUE,-74.01154,40.64392
368,550 VANDERBILT AVENUE,-73.96794,40.680252
369,403 MACON STREET,-73.93564,40.682697
7327,840-850 SAINT MARKS AVENUE,-73.94588,40.674976
8659,8509 16TH AVENUE,-74.006775,40.610588
7326,185 CLINTON AVENUE,-73.96865,40.692364
7329,68 GLEN STREET,-73.87227,40.680756
8657,6801 SHORE ROAD,,
9988,464 NEPTUNE AVENUE,-73.97075,40.579803
7328,456 MILLER AVENUE,-73.89042,40.66949
8658,63 PATCHEN AVENUE,-73.92752,40.69025
9989,458 NEPTUNE AVENUE,-73.97051,40.579823
20,459 SMITH STREET,-73.99687,40.67659
21,5112 2 AVENUE,-74.017624,40.648434
22,1115 BANNER AVENUE,-73.95872,40.583637
6010,183 HULL STREET,-73.909546,40.6797
7341,5208 AVENUE L,-73.925285,40.623684
8673,614 LIBERTY AVENUE,-73.88709,40.675793
23,364 55TH STREET,-74.01614,40.64408
7340,1869 COLEMAN STREET,-73.930176,40.61426
8674,212 VAN SICLEN AVENUE,-73.89087,40.674854
24,120 5TH AVENUE,-73.978355,40.67954
6012,1559 EAST 9TH STREET,-73.96449,40.61086
7343,44 PROSPECT WEST,-73.97257,40.66973
8671,185 HALL ST,-73.965675,40.692276
25,187 KENT AVENUE,-73.96418,40.718025
6011,1127 EAST 2ND STREET,-73.97452,40.623203
7342,1164 44TH STREET,-73.9924,40.63975
8672,578 VERMONT STREET,-73.89219,40.665237
26,68 FERRIS,-74.016075,40.67884
6014,441 EAST 2ND ST,-73.97786,40.640804
7345,36 OAKLAND PLACE,-73.954926,40.647434
8677,358 EAST 26TH STREET,-73.952484,40.641678
27,1245 AVENUE X,-73.95759,40.591946
6013,1656 EAST 8TH STREET,-73.965004,40.60847
7344,328 CENTRAL AVENUE,-73.9205,40.695427
8678,409A EAST 35TH STREET,-73.94412,40.645084
28,323 43RD STREET,-74.00982,40.651196
6016,356 AVENUE W,,
7347,145 SOUTH 9TH STREET,-73.96342,40.708637
8675,2583 PITKIN AVENUE,-73.87683,40.6747
29,561 PACIFIC STREET,-73.97971,40.684143
6015,2502 EAST 7TH STREET,-73.962425,40.58908
7346,92-94 PENN STREET,-73.95941,40.70148
8676,2821 CORTELYOU ROAD,-73.95056,40.64436
370,1400 DEAN STREET,-73.94276,40.676483
371,167 WILLOUGHBY STREET,-73.98198,40.69204
8670,1210 E. 95TH STREET,-73.901215,40.641556
372,2083 EAST 18TH STREET,-73.953636,40.599636
373,1444 EAST 8TH STREET,-73.96599,40.613674
374,1967 MC DONALD AVENUE,,
375,540 3RD STREET,-73.97739,40.669937
376,153 SEVENTH AVENUE,-73.976906,40.672485
377,46 GRAND STREET,-73.96535,40.71598
378,734 EGAN STREET,,
379,2146 EAST 5TH STREET,-73.96694,40.598133
6007,616 MACDONOUGH STREET,-73.92175,40.683533
7338,1892 BERGEN STREET,-73.9181,40.674355
6006,917 JEFFERSON AVENUE,-73.92207,40.686504
7337,1220 EAST 56 STREET,-73.92181,40.62583
6009,1857 PARK PLACE,-73.91608,40.671566
8668,1350 EAST 84TH STREET,-73.90215,40.63001
9999,654 PINE STREET,-73.86948,40.6694
6008,2075 PACIFIC STREET,-73.91868,40.67596
7339,346 79TH STREET,-74.027695,40.628254
8669,1221 EAST 94TH STREET,-73.90186,40.64105
30,92 NORTH 12,-73.95779,40.72248
31,97 GRAND STREET,-73.96374,40.71547
32,962 FRANKLIN AVENUE,-73.959885,40.665394
33,70 DAHILL ROAD,-73.98106,40.64569
6021,2213 EAST 13TH STREET,-73.95777,40.5961
7352,59 BRIGHTON 11 STREET,-73.95684,40.58116
8684,32 IRA COURT,,
34,110 BOERUM PLACE,-73.99144,40.687996
6020,1811 AVENUE V,-73.952995,40.59705
7351,1738 74TH STREET,-73.99679,40.61485
8685,110 OCEAN PARKWAY,-73.97513,40.647457
35,134 MORGAN AVENUE,-73.932495,40.708202
6023,2234 EAST 29TH STREET,-73.94232,40.597313
7354,17 PILLING STREET,-73.90882,40.682705
8682,175 WILLOUGHBY STREET,-73.98142,40.692017
36,185 MARCY AVENUE,-73.95833,40.70775
6022,2280 EAST 27TH STREET,-73.944,40.596165
7353,990 HANCOCK STREET,-73.915886,40.68742
8683,56 CYRUS AVENUE,-73.923294,40.58966
37,67 LIVINGSTON STREET,-73.99178,40.6917
6025,4734 BEDFORD AVENUE,-73.94406,40.58629
7356,703 ROCKAWAY PARKWAY,-73.91025,40.65226
8688,1814 EAST 52ND STREET,-73.92454,40.61516
38,3457 NOSTRAND AVENUE,-73.941635,40.59914
6024,2672 EAST 22ND STREET,-73.94708,40.587093
7355,1207 EAST 82ND STREET,-73.906075,40.631344
8689,235 BERKELEY PLACE,-73.97378,40.674614
39,187 NORTH 8TH STREET,-73.9562,40.717815
6027,2141 EAST 17TH STREET,-73.95434,40.59814
7358,9521 SEAVIEW COURT,-73.889046,40.63108
8686,599 EAST 7TH STREET,-73.97148,40.636955
6026,3989 NOSTRAND AVENUE,-73.93919,40.586334
7357,1170 EAST 95 STREET,-73.90225,40.642483
8687,1535 EAST 57TH STREET,-73.919846,40.61674
380,265 NORTH 6 ST,-73.95419,40.714718
381,245 NORTH 8TH STREET,-73.95385,40.71635
8680,1424 TROY AVENUE,-73.93472,40.63783
382,210 AVENUE N,,
8681,2062 EAST 41ST STREET,-73.93379,40.623425
383,173 PACIFIC STREET,-73.99385,40.68936
7350,499 QUINCY STREET,-73.939804,40.688213
384,228 NEW YORK AVENUE,-73.94747,40.672577
385,1296 OCEAN PARKWAY,-73.96944,40.61721
386,864 CARROLL STREET,-73.97244,40.671677
387,608 SIXTH STREET,-73.976685,40.667065
388,148 7 AVENUE,-73.97685,40.672577
389,8 BERRY STREET,-73.95508,40.722237
6018,2306 CONEY ISLAND AVENUE,-73.96139,40.600803
7349,40 OTSEGO STREET,-74.00984,40.67469
6017,702 AVENUE W,,
7348,948 E 77 STREET,-73.91436,40.633026
8679,790 EAST 37TH STREET,-73.941414,40.637817
6019,1815 AVE V,-73.952965,40.597054
40,537 SACKETT STREET,-73.986115,40.679417
41,159 BROADWAY,-73.962875,40.710125
42,378 SCHERMERHORN STREET,-73.98032,40.686817
43,556 LEFFERTS AVENUE,-73.942604,40.662857
44,219 SULLIVAN STREET,,
6032,2627 EAST 22 STREET,-73.94722,40.587894
7363,365 CLINTON AVENUE,-73.967606,40.6871
8695,24 MONROE PLACE,-73.99244,40.69654
45,242 COFFEY STREET,-74.01724,40.678375
6031,2632 EAST 22ND ST,-73.94722,40.587788
7362,210 CLINTON AVENUE,-73.968575,40.691906
8696,4523 FOSTER AVENUE,-73.93367,40.63952
46,908 FLUSHING AVENUE,-73.93546,40.70228
6034,1 FRANKLIN AVENUE,-73.959,40.699356
7365,925 PACIFIC STREET,-73.96333,40.680054
8693,1948 EAST 33RD STREET,-73.93444,40.60917
47,704 METROPOLITAN AVENUE,-73.94557,40.714417
6033,661 46TH STREET,-74.00447,40.645233
7364,1639 PACIFIC STREET,-73.93634,40.676926
8694,2349 DEAN STREET,-73.909874,40.674698
48,218 SOUTH 3RD STREET,-73.95884,40.711163
6036,32 WALTON STREET,-73.950806,40.70123
7367,1054 67TH STREET,-74.00815,40.628086
8699,40 FURMAN AVENUE,-73.90719,40.68196
49,1035 FULTON STREET,-73.96051,40.68215
6035,119 LORIMER STREET,-73.95062,40.702335
7366,217 AUTUMN AVENUE,-73.87046,40.68491
6038,42 MASPETH AVENUE,-73.94113,40.715538
7369,989 CRESCENT STREET,-73.86693,40.663128
8697,4578A KINGS HIGHWAY,-73.93268,40.629368
6037,145 JACKSON STREET,-73.94529,40.716602
7368,526 PINE STREET,-73.87026,40.672565
8698,2224 SCHENECTADY AVE,-73.92969,40.617832
390,1919 EAST 5TH STREET,-73.96793,40.60347
391,140 ST JOHNS PLACE,-73.97542,40.676956
392,882 CARROLL STREET,-73.97196,40.67149
8691,436 43RD STREET,-74.00763,40.649853
393,279 STATE STREET,-73.98764,40.68883
8692,1457 WEST 5TH STREET,-73.9793,40.61159
394,480 86TH STREET,-74.02672,40.621796
6030,3086 AVENUE X,-73.93442,40.59448
7361,932 EAST 92ND STREET,-73.91016,40.64584
395,670 65TH STREET,-74.01516,40.634193
7360,18 PAERDEGAT 14 STREET,-73.902214,40.627342
8690,546 57TH STREET,-74.01336,40.640553
396,113 BOERUM PLACE,-73.991325,40.688145
397,187 SMITH STREET,-73.991234,40.685585
398,5805 8 AVENUE,-74.00843,40.636566
399,545 EAST 82ND STREET,-73.91644,40.640663
6029,2343 EAST 18TH STREET,-73.952515,40.593704
6028,2252 EAST 15 STREET,-73.95578,40.59552
7359,565 EAST 91ST STREET,-73.91851,40.652695
50,862 UNION STREET,-73.97344,40.67367
51,409-421 14TH STREET,-73.98278,40.66326
52,380 LEFFERTS AVENUE,-73.94882,40.66247
53,60 NORTH 6TH STREET,-73.961655,40.71935
54,309 ATLANTIC AVENUE,-73.988434,40.688335
55,1296 EAST 14TH STREET,-73.961044,40.618294
6043,190 SOUTH 1ST STREET,-73.95976,40.713192
7374,475 EAST 58TH STREET,-73.92195,40.645298
56,50 ORANGE STREET,-73.99367,40.699093
6042,22 N 6TH STREET,,
7373,1015 EAST 38TH STREET,-73.93973,40.63098
57,119 COLUMBIA HEIGHTS,-73.99606,40.698864
6045,304 HENRY STREET,-73.99618,40.69089
7376,159 E 38 STREET,,
58,144-156 GREEN STREET,-73.95609,40.73362
6044,2493 OCEAN AVE,-73.95165,40.60072
7375,155 EAST 49TH STREET,-73.93214,40.65872
59,291 LINCOLN PLACE,-73.96527,40.673298
6047,668 HALSEY STREET,-73.927284,40.684395
7378,1605 E 45TH STREET,-73.93197,40.62129
6046,209 BAY 7TH STREET,,
7377,250 EAST 94 STREET,-73.923294,40.660275
6049,111 HICKS STREET,-73.994446,40.69821
6048,2020 83RD STREET,-73.99592,40.605988
7379,1085 EAST 53RD STREET,-73.92539,40.63249
7370,605 AUTUMN AVENUE,-73.86774,40.673973
6041,170 N 11TH STREET,-73.99165,40.67007
7372,1840 BROOKLYN AVENUE,-73.94137,40.62831
6040,184 VARET STREET,-73.93576,40.70374
7371,4111 AVENUE K,-73.93616,40.62579
6039,143 MESEROLE STREET,-73.943726,40.70804
60,1695 EAST 21ST STREET,-73.95263,40.61134
61,1702 EAST 9TH STREET,-73.963875,40.60752
62,130 GRAND STREET,-73.9626,40.71503
63,1970 PITKIN AVENUE,-73.89966,40.671326
64,427 DEAN STREET,-73.97745,40.68246
65,1 MAIN STREET,-73.99054,40.70317
66,72 CATON PLACE,-73.97271,40.649734
6054,2109A PACIFIC STREET,-73.9172,40.67588
7385,2062 BERGEN STREET,-73.912346,40.674038
67,8802 5 AVENUE,-74.027275,40.62027
6053,1125 LORIMER STREET,-73.95431,40.72815
7384,2531 EAST 63RD STREET,-73.91005,40.610016
68,39 MAC DONOUGH STREET,-73.9448,40.680897
6056,404 3RD STREET,-73.98112,40.67174
7387,205 PARK PLACE,-73.97102,40.677177
69,1158 MC DONALD AVENUE,-73.97602,40.624767
6055,1250 OCEAN PARKWAY,-73.96961,40.618153
7386,345 WEBSTER AVENUE,-73.96879,40.633816
6058,224 16TH STREET,-73.988205,40.66418
7389,3705 NEPTUNE AVENUE,-74.003494,40.576862
6057,378 7TH STREET,-73.98367,40.669598
7388,115 EASTERN PARKWAY,-73.96513,40.67249
6059,2233 EAST 27TH STREET,-73.94417,40.59715
6050,150 JORALEMON STREET,-73.99328,40.692867
7381,1743 WEST 12TH STREET,-73.98471,40.604233
7380,289 AVENUE S,,
6052,616 EAST 18TH STREET,-73.96056,40.636147
7383,2715 EAST 64TH STREET,-73.9126,40.606888
6051,31 LOGAN STREET,-73.87887,40.686085
7382,2065 EAST 34TH STREET,-73.93165,40.607784
70,484-490 STERLING PLACE,-73.96224,40.67438
71,168 8TH STREET,-73.98999,40.671806
72,181 PROSPECT PARK WEST,-73.97896,40.662083
73,754 EAST 23RD STREET,-73.95462,40.631897
74,558 PARKSIDE AVENUE,-73.95464,40.65598
75,172 MONTROSE AVENUE,-73.94262,40.707386
76,35 CLAVER PLACE,-73.95749,40.682205
77,1650 W. 10TH STREET,,
6065,189 GREENPOINT AVENUE,-73.952095,40.730408
7396,1333 EAST 91ST STREET,-73.90136,40.637283
78,100 FERRIS,-74.01696,40.678085
6064,10410 AVENUE K,-73.89163,40.64384
7395,1342 BUSHWICK AVENUE,-73.91152,40.685726
79,50 CLARKSON AVENUE,-73.958,40.654938
6067,32 SHERMAN ST,-73.97796,40.657536
7398,220 BERKELEY PLACE,-73.97357,40.674522
6066,2403 BRIGHAM STREET,-73.93397,40.59434
7397,1383 EAST 99TH STREET,-73.89033,40.636883
6069,1250 42ND STREET,-73.98913,40.639595
6068,1272 EAST 49TH STREET,-73.92908,40.629997
7399,925 UNION STREET,-73.97268,40.673386
7390,2147 FORD STREET,-73.93791,40.599834
6061,176 SEELEY STREET,-73.97599,40.6547
7392,75 KINGSLAND AVENUE,-73.94054,40.7189
6060,352 21ST STREET,-73.99007,40.659317
7391,2643 EAST 24TH STREET,-73.94534,40.587944
6063,184 INDIA STREET,-73.9528,40.73249
7394,578 AUTUMN AVENUE,-73.86794,40.67477
6062,8106 12TH AVENUE,-74.013245,40.618168
7393,436 EAST 55TH STREET,-73.925064,40.64729
80,271 SEA BREEZE AVENUE,-73.97163,40.575893
81,1261 SCHENECTADY,-73.932236,40.641766
82,131 8 STREET,-73.99101,40.672314
83,286-290 CLINTON AVENUE,-73.96813,40.68968
84,218 25TH STREET,-73.99775,40.66031
85,3050 WEST 21ST STREET,-73.98744,40.57353
86,465 PACIFIC STREET,-73.982506,40.685226
87,379 SNEDIKER AVENUE,-73.89979,40.664665
88,787 EAST 46TH STREET,-73.93327,40.642315
6076,1034 EAST 32ND STREET,-73.944786,40.6261
89,2686 OCEAN AVENUE,-73.95077,40.59597
6075,658 WARWICK STREET,-73.88418,40.666843
6078,1964 HARING STREET,-73.9415,40.60368
6077,2910 QUENTIN ROAD,-73.94426,40.609787
6079,1749 EAST 32ND STREET,-73.93879,40.61198
6070,269 EVERGREEN AVENUE,-73.92599,40.695427
6072,157 WAVERLY AVE,-73.96778,40.692936
6071,345 CLINTON AVENUE,-73.967705,40.68761
6074,1314 77TH STREET,-74.0082,40.618874
6073,140 WARREN STREET,-73.99842,40.688282
90,27 MONROE PLACE,,
91,959 ST MARKS AVENUE,-73.94014,40.67467
92,45 MONTGOMERY PLACE,-73.9731,40.67126
93,550 MESEROLE STREET,-73.92715,40.71082
94,140 STEWART AVENUE,-73.92665,40.710842
95,209 HAVEMEYER STREET,,
96,2837 CONEY ISLAND AVENUE,-73.96034,40.587246
97,1584-1592 FLATBUSH AVENUE,-73.94703,40.632217
98,814 BEDFORD AVENUE,-73.95654,40.696552
99,19 DURYEA PLACE,-73.957726,40.64533
6087,592 MAPLE STREET,-73.94108,40.661415
6086,3109 AVENUE L,-73.94483,40.622128
6089,1889 WEST 8TH STREET,-73.98038,40.60133
6088,1547 EAST 31ST STREET,-73.94295,40.614616
6081,299 13TH STREET,-73.98709,40.66619
6080,203 MACDOUGAL STREET,-73.91298,40.680046
6083,651 VANDERBILT STREET,-73.974724,40.65409
6082,2350 EAST 28TH STREET,-73.942764,40.59463
6085,7608 BAY PARKWAY,-73.98818,40.60737
6084,651 VANDERBILT STREET,-73.974724,40.65409
3803,4911 SURF AVENUE,-74.01067,40.57866
3804,547 55TH STREET,-74.012184,40.64168
3805,233 OCEAN PARKWAY,-73.97398,40.644096
3806,714 MADISON STREET,-73.929344,40.687157
3807,570 MACON STREET,-73.92795,40.68357
3808,385 MCDONOUGH STREET,-73.93021,40.68257
3809,320 TOMPKINS AVENUE,-73.9446,40.68678
3800,970 EAST 17TH STREET,-73.959755,40.626675
3801,26 LOUIS PLACE,-73.91733,40.67755
3802,302 SECOND STREET,-73.983765,40.673866
6098,1809-1811 PITKIN AVENUE,-73.90618,40.67037
6097,130 BRISTOL STREET,-73.91228,40.668106
6099,360 CLINTON AVENUE,-73.96769,40.68747
6090,431 QUENTIN ROAD,-73.96992,40.60697
6092,214 72 STREET,-74.0291,40.63402
6091,4339 BEDFORD AVENUE,-73.94589,40.59606
6094,111 HICKS STREET,-73.994446,40.69821
6093,2835 BRIGHTON 6 STREET,-73.96297,40.58226
6096,124 BLAKE AVENUE,-73.91485,40.664856
6095,150 JORALEMON STREET,-73.99328,40.692867
3814,1846 58TH STREET,-73.98478,40.62238
3815,6114 20TH AVENUE,-73.98361,40.61869
3816,512 HENRY STREET,-73.9996,40.68374
3817,199 STATE STREET,-73.9917,40.690235
3818,371 EAST 23RD STREET,-73.95531,40.641167
3819,789 EAST 21ST STREET,-73.95696,40.63435
3810,24 KOSCIUSZKO STREET,-73.95447,40.69027
3811,7823 19TH AVENUE,-73.9959,40.610302
3812,1921 68TH STREET,-73.989296,40.6158
3813,925 52ND STREET,-74.00204,40.638294
3825,1100 SHEEPSHEAD BAY ROAD,-73.9581,40.592693
3826,230 20TH STREET,-73.99326,40.66216
3827,59 PATCHEN AVE,-73.92753,40.69031
3828,686 EMPIRE BOULEVARD,-73.93937,40.663868
3829,251 CONOVER STREET,-74.017,40.675728
3820,213 BOND STREET,-73.987564,40.682915
3821,2197 CONEY ISLAND AVENUE,-73.961586,40.603554
3822,4080 OCEAN AVE,-73.94779,40.58024
3823,971 PUTNAM AVENUE,-73.92226,40.68723
3824,222 PARK PLACE,-73.970535,40.677063
2504,123 WASHINGTON AVENUE,-73.96719,40.694946
3836,321 51ST STREET,-74.01448,40.646717
2503,376 15TH STREET,-73.98375,40.66287
3837,212 33RD STREET,-74.00188,40.655502
2502,432 THIRD STREET,-73.9814,40.67188
3838,1059 MANHATTAN AVENUE,-73.95505,40.73494
2501,125 NORTH 10TH STREET,-73.956955,40.720135
3839,2121 ATLANTIC AVENUE,-73.90901,40.676247
2500,164 SOUTH OXFORD,-73.97312,40.684593
3830,272 DEAN STREET,-73.98265,40.68447
2509,2012 HOMECREST AVENUE,-73.95954,40.60037
3831,179 BAY 8TH STREET,,
2508,100 CONGRESS STREET,-73.99926,40.68931
3832,25 70TH STREET,-74.034836,40.6377
2507,8686 BAY PARKWAY,-73.99574,40.6001
3833,385 NOSTRAND AVENUE,-73.95041,40.6846
2506,48 PIERREPONT STREET,-73.99515,40.695778
3834,1220 78TH STREET,-74.01087,40.619576
2505,394 QUINCY STREET,-73.94516,40.687588
3835,380 15TH STREET,-73.98363,40.66281
2515,739 EMPIRE BLVD,-73.937836,40.663795
3847,8902 SHORE COURT,-74.03876,40.622837
2514,740 LEXINGTON AVENUE,-73.92959,40.69013
3848,548 BAY RIDGE PARKWAY,,
2513,46 NORTH HENRY STREET,-73.9427,40.720478
3849,979 BAY RIDGE PARKWAY,,
2512,244 NORTH 5TH STREET,-73.955894,40.71484
2511,565 47TH STREET,-74.00718,40.645958
2510,3861-3863 BEDFORD AVENUE,-73.94813,40.607876
3840,2130 EAST 18TH STREET,-73.95342,40.59843
3841,393 DEAN STREET,-73.97836,40.68282
3842,1535 80TH STREET,-74.00516,40.614315
2519,8915 SHORE ROAD,-74.04037,40.62281
3843,1578 BERGEN STREET,-73.93087,40.675053
2518,211 NORTH 5TH STREET,-73.95674,40.715385
3844,242 10TH STREET,-73.99062,40.67042
2517,200 AINSLIE STREET,-73.946396,40.712868
3845,8925 FLATLANDS AVENUE,-73.906525,40.639885
2516,186 8 STREET,-73.98937,40.671505
3846,873 LAFAYETTE AVE,-73.93753,40.691475
3860,2404 SNYDER AVENUE,-73.95472,40.64869
2526,75 HENRY STREET,-73.99222,40.699093
3858,1947 67TH STREET,-73.98822,40.616066
2525,65 OCEANA DRIVE EAST,-73.95765,40.577156
3859,253 CONOVER STREET,-74.01704,40.67569
2524,1668 42ND STREET,-73.979805,40.633972
2523,143 BERGEN STREET,-73.98778,40.685677
2522,1626 76TH STREET,-74.000824,40.615326
2521,1514 BAY RIDGE PARKWAY,,
2520,2125 75TH STREET,-73.98893,40.609135
3850,1647 WEST 6TH STREET,-73.97949,40.607067
3851,1914 WEST 11TH STREET,-73.98301,40.600155
3852,1377 EAST 16TH STREET,-73.95876,40.616318
3853,235 LINCOLN PLACE,-73.972885,40.67507
3854,198-210 16TH STREET,-73.98901,40.66457
2529,1427 GLENWOOD ROAD,-73.96326,40.6323
3855,317 CENTRAL AVENUE,-73.920135,40.695236
2528,7717 13TH AVENUE,-74.00876,40.61902
3856,105 LEXINGTON AVE,-73.958115,40.686855
2527,76 REMSEN STREET,-73.995514,40.694336
3857,1136 HERKIMER STREET,-73.91599,40.6778
3870,216 94TH STREET,-74.03541,40.61845
3871,6640 RIDGE BOULEVARD,-74.02719,40.639233
2540,721A MADISON STREET,-73.92878,40.687233
1206,2409 OCEAN AVENUE,-73.95206,40.602833
2537,563 CARROLL STREET,-73.98302,40.67581
3869,27 94TH STREET,-74.03849,40.618107
1205,149 MESEROLE AVENUE,-73.950836,40.72772
2536,131 NORFOLK STREET,-73.93894,40.580017
1204,13 CLIFFORD PLACE,-73.9557,40.727104
2535,881 EASTERN PARKWAY,-73.93891,40.669445
1203,2960 86TH STREET,-73.97507,40.590595
2534,292 PARKSIDE AVENUE,-73.95903,40.65569
1202,364 PRESIDENT STREET,-73.991646,40.67995
2533,527 54 STREET,-74.01198,40.642467
1201,177 STERLING STREET,-73.95513,40.66287
2532,305 HAMPTON AVENUE,-73.95135,40.579494
1200,90 MAPLE STREET,-73.95793,40.66037
2531,1538 WEST 6TH STREET,-73.979996,40.609596
2530,768 EAST 21ST STREET,-73.95706,40.63478
3861,27 QUINCY STREET,-73.96018,40.68587
3862,147 BAY 14TH STREET,-73.99265,40.668034
3863,6825 BLISS TERRACE,-74.03174,40.63825
3864,7509 COLONIAL ROAD,-74.033195,40.63263
3865,425 76TH STREET,-74.02467,40.62971
1209,2135 MILL AVENUE,-73.913246,40.614876
3866,556 77TH STREET,-74.02194,40.62717
1208,1238 EAST 22ND STREET,-73.95367,40.621857
2539,711 MONROE STREET,-73.92782,40.68809
3867,335 80TH STREET,-74.02827,40.627598
1207,7 HASTINGS STREET,-73.94507,40.581093
2538,91 MALCOLM X BLVD,-73.93058,40.690617
3868,9109 COLONIAL ROAD,-74.03787,40.621174
3880,1476 FULTON STREET,-73.94184,40.67997
3881,182 HART STREET,-73.94434,40.693676
3882,50 MONROE STREET,-73.957344,40.684685
1220,4816 8 AVENUE,-74.00268,40.642117
2551,1117 GREENE AVE,-73.92372,40.693787
2550,1545 47TH STREET,-73.985435,40.632824
1217,463 SIXTH AVENUE,-73.98452,40.66733
2548,834 41ST STREET,-73.99766,40.64566
1216,179 4 AVENUE,-73.98229,40.678513
2547,422 LAFAYETTE AVENUE,-73.95837,40.68906
1215,438 12TH STREET,-73.98184,40.664486
2546,831 QUINCY STREET,-73.92494,40.68992
1214,910 UNION STREET,-73.971466,40.67291
2545,170 CLIFTON PLACE,-73.95815,40.68834
1213,38 MONTGOMERY PLACE,-73.97326,40.671326
2544,1002 BEDFORD AVENUE,-73.95537,40.690643
1212,848 PRESIDENT STREET,-73.97491,40.67344
2543,86 HANCOCK STREET,-73.95228,40.68227
1211,425 12TH STREET,-73.98228,40.664707
2542,168 BAINBRIDGE STREET,-73.93023,40.68106
1210,1896 EAST 7,-73.96532,40.60433
2541,591 PUTNAM AVENUE,-73.93762,40.685467
3872,330 BAY RIDGE PARKWAY,,
3873,235 87TH STREET,-74.03304,40.623135
3874,39 GELSTON AVENUE,-74.02609,40.62012
3875,316 100TH STREET,-74.03499,40.613487
3876,1876A FULTON STREET,-73.9243,40.679012
3877,952A GREENE AVENUE,-73.92967,40.690865
1219,41 EASTERN PARKWAY,-73.96699,40.67295
3878,174A ELLERY STREET,-73.94585,40.69876
1218,348A 14TH STREET,-73.98524,40.664436
2549,1133 57TH STREET,-74.0004,40.63274
3879,38 DECATUR STREET,-73.941895,40.68047
3890,2014 80TH STREET,-73.994286,40.607735
3891,2404 ROYCE STREET,-73.89905,40.616737
3892,44 BERGEN STREET,-73.99165,40.68719
3893,1933 53RD STREET,-73.9802,40.624187
1231,584 CARROLL STREET,-73.98262,40.675644
2562,2334 EAST 64TH STREET,-73.9088,40.61272
1230,24 VANDERBILT AVENUE,-73.97027,40.69528
2561,1429 EAST 23RD STREET,-73.95158,40.615837
2560,29 EXETER STREET,-73.94897,40.58128
1228,423 ATLANTIC AVENUE,-73.98388,40.68657
2559,78 NORTH HENRY STREET,-73.94295,40.721966
1227,60 ST NICHOLAS AVENUE,-73.92038,40.706776
2558,1224 STERLING PLACE,-73.9382,40.671867
1226,217 TERRACE PLACE,-73.97458,40.656094
2557,1251 CARROLL STREET,-73.94697,40.66698
1225,172 SOUTH 4TH ST,-73.96123,40.71127
2556,101 WARREN STREET,-73.99901,40.688484
1224,85-101 NORTH 3RD STREET,-73.962555,40.717094
2555,536 HENRY STREET,-74.000084,40.68275
1223,116 ROEBLING STREET,-73.956055,40.715454
2554,241 STOCKHOLM STREET,-73.92092,40.701412
1222,174 NORTH 6TH STREET,-73.95786,40.716988
2553,159 SUYDAM STREET,-73.92647,40.69934
1221,790 GRAND STREET,-73.941635,40.711857
2552,1136 DECATUR STREET,-73.90869,40.687595
3883,246 QUINCY STREET,-73.95163,40.686844
3884,LAFAYETTE AVENUE,,
3885,892 DEKALB AVENUE,-73.94043,40.692627
3886,1679 71ST STREET,-73.99661,40.61749
3887,1984 70TH STREET,-73.98926,40.613945
3888,7205 17TH AVENUE,-73.99664,40.61649
3889,1836 78TH STREET,-73.99697,40.611183
1229,14 VANDERBILT AVENUE,-73.9703,40.69543
1242,205 WATER STREET,-73.98629,40.703094
2573,54 MONITOR STREET,-73.9418,40.720764
1241,138 MADISON STREET,-73.953445,40.684383
2572,521 GREENE AVENUE,-73.95,40.68854
1240,473 WAVERLY AVENUE,-73.965996,40.683968
2571,315 82ND STREET,-74.02933,40.62625
2570,121 SKILLMAN AVENUE,-73.94652,40.715763
1239,418 4 AVENUE,-73.98782,40.67144
1238,2015 86TH STREET,-73.997826,40.60436
2569,521 57TH STREET,-74.01384,40.640858
1237,260 NORTH 9TH STREET,-73.95349,40.71705
2568,218 20TH STREET,-73.993614,40.662373
1236,90 EIGHTH AVENUE,-73.973236,40.673084
2567,162 16TH STREET,-73.9905,40.66529
1235,20 VANDERBILT AVENUE,-73.970276,40.69534
2566,27 PROSPECT PARK WEST,-73.97179,40.670685
1234,492 WARREN STREET,-73.985306,40.6831
2565,2526 CONEY ISLAND AVENUE,-73.96097,40.595272
1233,268 7TH STREET,-73.98712,40.67126
2564,707 DITMAS AVENUE,-73.97122,40.636307
1232,197 MACDONOUGH STREET,-73.938446,40.681625
2563,1132 EAST 3RD STREET,-73.97365,40.623512
3894,657 DAHILL ROAD,-73.97838,40.63166
3895,1534 58TH STREET,-73.99215,40.62683
3896,1656 61ST STREET,-73.99118,40.62344
3897,1423 45TH STREET,-73.98699,40.635586
3898,1748 63RD STREET,-73.99015,40.620995
3899,2823 BRIGHTON 6 STREET,-73.96302,40.58253
1253,8317 COLONIAL ROAD,-74.03557,40.626812
2584,1916 85TH STREET,-73.99936,40.606247
1252,3801 FT HAMILTON PARKWAY,,
2583,324 ST. MARKS AVENUE,-73.96491,40.677776
1251,138 NORTH 9TH STREET,-73.957436,40.719494
2582,369 76TH STREET,-74.026276,40.630333
1250,363 13TH STREET,-73.984825,40.665092
2581,285 MAYFAIR DRIVE NORTH,-73.904205,40.61074
2580,186 INDIA STREET,-73.95273,40.7325
1249,51 LOTT AVENUE,-73.912,40.657314
1248,325 LEONARD STREET,-73.94791,40.71531
2579,417 CLINTON STREET,-73.99833,40.68199
1247,102 DEVOE STREET,-73.947365,40.713493
2578,61A PALMETTO STREET,-73.91945,40.690975
1246,3919 4 AVENUE,-74.0063,40.6525
2577,340 MACON STREET,-73.93712,40.682518
1245,34 VANDERBILT AVENUE,-73.97024,40.695126
2576,540 77TH STREET,-74.02226,40.627365
1244,633 LEONARD STREET,-73.95124,40.726357
2575,76 74TH ST,-74.03361,40.6336
1243,6331/2 LEONARD STREET,,
2574,180 RICHARDS STREET,-74.01171,40.676083
1264,28 JACKSON PLACE,-73.9862,40.662716
2595,849 CARROLL STREET,-73.97259,40.67175
1263,351 4TH STREET,-73.982414,40.671535
2594,2225 EAST 7TH ST,-73.96377,40.596256
1262,1169 E 9TH STREET,-73.96633,40.620552
2593,460 MANHATTAN AVENUE,-73.947525,40.720097
1261,36 VANDERBILT AVENUE,-73.97023,40.695095
2592,376 BOND STREET,-73.991005,40.677998
1260,227 9TH STREET,-73.989334,40.670647
2591,1245 66TH STREET,-74.00334,40.626106
2590,121 PACIFIC STREET,-73.99581,40.689907
1259,229 9 STREET,-73.989265,40.67061
1258,1160 UNION STREET,-73.95293,40.669086
2589,198 FREEMAN STREET,-73.95395,40.73454
1257,104 BERGEN STREET,-73.98954,40.686356
2588,2125 EAST 24TH STREET,-73.947495,40.5993
1256,193 HANCOCK STREET,-73.9483,40.68274
2587,957 78TH STREET,-74.017166,40.62334
1255,246 CLIFTON PLACE,-73.95441,40.68877
2586,1108 JEFFERSON AVENUE,-73.91567,40.68884
1254,245 BAY RIDGE PARKWAY,,
2585,2038 74TH STREET,-73.99025,40.610905
1275,285 7 STREET,-73.98669,40.671066
1274,573 MEEKER AVENUE,-73.94246,40.721363
1273,181 STRATFORD ROAD,-73.968796,40.644318
1272,304 HERKIMER STREET,-73.94364,40.67931
1271,33 MONROE STREET,-73.95773,40.684654
1270,2050 85TH STREET,-73.99651,40.60453
1269,813 GREENWOOD AVENUE,-73.97376,40.65223
1268,431 SENATOR STREET,-74.02206,40.635727
2599,8203 3 AVENUE,-74.02989,40.62631
1267,931 PUTNAM AVENUE,-73.9242,40.687008
2598,75 LIVINGSTON STREET,-73.99161,40.691647
1266,170 SOUTH 1ST STREET,-73.96054,40.713478
2597,955 EAST 18TH STREET,-73.958885,40.627354
1265,NORTH 8TH STREET,,
2596,437 2ND STREET,-73.97995,40.672035
1286,5515 18TH AVENUE,-73.984505,40.624775
1285,324 20TH STREET,-73.9901,40.66025
1284,546 LEONARD STREET,-73.949615,40.723515
1283,114 4 PLACE,-73.99784,40.6778
1282,228 LEXINGTON AVENUE,-73.95256,40.687485
1281,22 VANDERBILT AVENUE,-73.970276,40.69531
1280,96 RUTLAND ROAD,-73.95759,40.65896
1279,1323 DITMAS AVENUE,-73.96516,40.636395
1278,252 MADISON STREET,-73.94894,40.684906
1277,24 RICHARDSON STREET,-73.95129,40.718178
1276,300 15TH STREET,-73.9863,40.664104
1297,314 BRIGHTON BEACH AVENU,-73.964005,40.577053
1296,50 OCEANA DRIVE WEST,-73.9588,40.576626
1295,1128 59TH STREET,-74.00165,40.631657
1294,1887-1889 49TH STREET,-73.97925,40.62726
1293,1317 52ND STREET,-73.993385,40.633064
1292,1413 48TH STREET,-73.98893,40.63402
1291,122 4 AVENUE,-73.980835,40.680687
1290,222 MALCOM X BOULEVARD,,
1289,482 TOMPKINS AVENUE,-73.94338,40.680664
1288,222 MADISON STREET,-73.94992,40.68479
1287,8525 COLONIAL ROAD,-74.03616,40.62535
1299,230 GREENE AVENUE,-73.961845,40.687164
1298,20 ST.JAMES PLACE,,
8700,1467 EAST 56TH STREET,-73.921165,40.619957
400,10 THIRD PLACE,-74.001114,40.679634
401,348 SACKETT STREET,-73.99416,40.68253
402,146 8TH STREET,-73.99084,40.67222
403,1008 MANHATTAN AVENUE,-73.95478,40.733414
404,206 NASSAU AVENUE,-73.94493,40.725567
405,2142 EAST 4TH STREET,-73.96789,40.59815
406,2784 CONEY ISLAND AVENUE,-73.960464,40.588634
407,542 3RD STREET,-73.977325,40.66991
408,289 6 AVENUE,-73.979996,40.672752
409,629 3RD AVE,-73.99574,40.665558
8710,454 LAFAYETTE AVENUE,-73.956894,40.68923
8711,24 COVE LANE,-73.909325,40.624454
8709,481 LEXINGTON AVENUE,-73.94288,40.68861
410,536 DRIGGS AVENUE,-73.95608,40.71738
411,257 BERRY STREET,-73.96297,40.7148
412,305 BEDFORD AVENUE,-73.961876,40.713585
413,271 STATE STREET,-73.987885,40.688927
414,503 1 STREET,-73.97586,40.670906
415,337 CARROLL STREET,-73.99156,40.679127
8703,6 MC CLANCY PLACE,-73.88585,40.663895
416,125 LINCOLN PLACE,-73.975876,40.676235
8704,10 MCCLANCY PLACE,-73.885826,40.66391
417,252 PROSPECT PLACE,-73.96808,40.677498
8701,257 EAST 53RD STREET,-73.92764,40.65354
418,1172-1182 FLATBUSH AVENUE,-73.95674,40.641617
8702,515 EAST 7TH,-73.971924,40.63931
419,306 PROSPECT PLACE,-73.96659,40.677185
8707,503 RIDGEWOOD AVENUE,-73.87031,40.686024
8708,121 EAST 28TH STREET,-73.951004,40.646362
8705,1251 EAST 101ST STREET,-73.89121,40.639885
8706,90-92 MIDDLETON STREET,-73.95292,40.701805
8721,185 HALL STREET,-73.965675,40.692276
8722,601 SURF AVE.,-73.97449,40.57497
8720,185 HALL STREET,-73.965675,40.692276
420,914 EAST 9TH STREET,-73.96747,40.626465
421,6602 BAY PARKWAY,-73.98226,40.613125
422,649 ARGYLE ROAD,-73.96483,40.633415
423,31-33 FROST STREET,-73.950775,40.717518
424,140 CLINTON AVENUE,-73.968956,40.693832
425,167 COLUMBIA HEIGHTS,-73.99652,40.69783
426,369 OCEAN AVENUE,-73.96169,40.653732
8714,24 MONROE PLACE,-73.99244,40.69654
10000,179 ATKINS AVENUE,-73.879036,40.674732
427,134 PIERREPONT STREET,-73.99199,40.694912
8715,1290 EAST 91ST STREET,-73.90247,40.63827
428,610 MYRTLE AVENUE,-73.959785,40.694157
8712,1535 ROYCE STREET,-73.9073,40.6234
429,208 CARROLL STREET,-73.9976,40.681355
8713,1311 BRIGHTWATER AVENUE,-73.95556,40.575676
8718,9306 FARRAGUT RD,-73.90699,40.64468
8719,8407 GLENWOOD ROAD,-73.91194,40.638958
8716,10571 AVENUE K,-73.88959,40.64519
8717,6 PAERDEGAT 13TH STREE,-73.903145,40.6276
7400,57 BAY 20TH STREET,-74.00243,40.60519
8732,385 ARGYLE ROAD,-73.966,40.639572
8733,385 ARGYLE ROAD,-73.966,40.639572
7402,1818 NEWKIRK AVENUE,-73.96047,40.636898
8730,115 SHERIDAN AVENUE,-73.867424,40.67994
7401,345 HERZL STREET,-73.9134,40.661076
8731,719-721 SNEDIKER AVE,-73.89784,40.657063
430,279 SACKETT STREET,-73.996315,40.68329
431,175 CONGRESS STREET,-73.995766,40.688354
432,DIAMOND STREET,,
433,816 EAST 14TH STREET,-73.96315,40.629448
434,335 18TH STREET,-73.988495,40.661118
435,386 METROPOLITAN AVENUE,-73.95538,40.71407
436,429 KENT AVENUE,-73.9685,40.709557
437,320 MACON STREET,-73.938156,40.682396
8725,1673 STERLING PLACE,-73.9233,40.671066
438,346 CARLTON AVENUE,-73.97167,40.687214
8726,225 ADAMS STREET,-73.9885,40.69722
439,44 MONTGOMERY PLACE,-73.97313,40.671265
8723,1166 STERLING PLACE,-73.940125,40.671974
8724,1585 BERGEN STREET,-73.93114,40.67508
8729,727 FOUNTAIN AVENUE,-73.86867,40.66244
8727,2233 PITKIN AVENUE,-73.88997,40.67277
8728,1011 BELMONT AVE,-73.87177,40.674114
8740,1655 FLATBUSH AVENUE,-73.9449,40.630222
7411,99 NEWPORT STREET,-73.911644,40.658962
8743,4905 AVENUE M,-73.92803,40.62131
7410,6670 AVENUE M,-73.914825,40.623283
8744,191 WILLOUGHBY STREET,-73.97992,40.691963
7413,943 ST MARKS AVENUE,-73.94055,40.674694
8741,377 LINDEN BLVD,-73.945305,40.6529
7412,205 CLINTON AVENUE,-73.96854,40.691788
8742,4407 AVENUE M,-73.93279,40.621014
440,9 PROSPECT PARK WEST,-73.9709,40.671818
441,41 LOTT AVENUE,-73.91235,40.657265
442,141 COURT STREET,-73.992455,40.6895
443,35 SOUTH PORTLAND,-73.97485,40.688446
444,297 16TH STREET,-73.98641,40.66333
445,619 HANCOCK STREET,-73.930534,40.684784
446,6913 15TH AVENUE,-73.999596,40.620937
447,1315 43RD STREET,-73.988174,40.638123
448,356 PRESIDENT STREET,-73.991844,40.680027
7404,7506 16TH AVE,-74.000916,40.616238
8736,263 EAST 53RD STREET,-73.92762,40.653385
449,933 EAST 8TH STREET,-73.96838,40.626377
7403,2167 RYDER STREET,-73.92617,40.608463
8737,738 EAST 40 STREET,-73.93854,40.637302
7406,550 5 AVENUE,-73.98928,40.66562
8734,385 EAST 18TH STREET,-73.96165,40.641926
7405,432 WARWICK STREET,-73.88575,40.673
8735,836 ROGERS AVENUE,-73.95243,40.650223
7408,178 WYONA STREET,-73.893616,40.67459
7407,277 WASHINGTON AVE,-73.96631,40.69055
8738,1477 NEW YORK AVENUE,-73.94518,40.637077
7409,140 EAST 2ND,-73.97943,40.64902
8739,1475 NEW YORK AVENUE,-73.94519,40.637115
8750,3517 FILLMORE AVENUE,-73.93375,40.61101
8751,1835 EAST 35TH STREET,-73.93504,40.61193
7420,1825 FOSTER AVENUE,-73.96016,40.635487
7422,770A LEFFERTS AVENUE,-73.93551,40.6633
8754,4 RADDE PLACE,-73.914536,40.677612
7421,112 EAST 53RD STREET,-73.92808,40.657528
8755,350 OCEAN PARKWAY,-73.97386,40.640434
7424,2720 86TH STREET,-73.98149,40.594463
8752,1839 EAST 36TH STREET,-73.934235,40.612354
7423,969 EAST 56TH STREET,-73.922516,40.63262
8753,1820 EAST 38TH STREET,-73.933075,40.61354
450,503 4TH STREET,-73.977455,40.66914
451,175 7TH AVENUE,-73.97774,40.671497
452,22 NORTH 6TH STREET,-73.96695,40.711544
453,369 PARK PLACE,-73.96563,40.67605
454,227 BERKELEY,-73.97391,40.674667
455,736 WILLOUGHBY AVENUE,-73.93962,40.69497
456,408 4TH STREET,-73.9803,40.670506
457,184 COLUMBIA HEIGHTS,-73.99654,40.69782
458,761 HUMBOLDT STREET,-73.94584,40.72791
459,1900 EAST 5TH STREET,-73.96804,40.60396
7415,370 ATKINS AVENUE,-73.87777,40.669556
8747,1729 STILLWELL AVENUE,-73.98669,40.604286
7414,285 CRESCENT STREET,-73.871765,40.682323
8748,1838 WEST 13TH STREET,-73.985214,40.60181
7417,439 FORBELL STREET,-73.86245,40.67192
8745,68 CELESTE COURT,-73.92856,40.594063
7416,223 FOUNTAIN AVENUE,-73.875145,40.674427
8746,162 BAY 43RD STREET,-73.988525,40.592045
7419,785 DREW STREET,-73.8612,40.670708
7418,782 LINCOLN AVENUE,-73.86584,40.670216
8749,1730 EAST 37TH,-73.93545,40.61457
8761,570 44 STREET,-74.00533,40.647552
8762,2 THROOP AVENUE,-73.94923,40.70486
6100,361 CLINTON AVENUE,-73.96762,40.687202
7431,237A SUMPTER STREET,-73.91573,40.68049
7430,621 ROGERS AVENUE,-73.95308,40.656425
8760,547 41ST STREET,-74.00402,40.649525
6102,177 BUFFALO AVENUE,-73.925125,40.67324
7433,325 EAST 32ND STREET,-73.94678,40.642708
8765,2539 WEST 15TH STREET,-73.98413,40.585514
6101,361 CLINTON AVENUE,-73.96762,40.687202
7432,957 CRESCENT STREET,-73.86717,40.664043
8766,1106 EAST 94TH,-73.90452,40.64342
6104,116 EUCLID AVENUE,-73.87482,40.685947
7435,925 UNION STREET,-73.97268,40.673386
8763,771 LINDEN BLVD.,-73.92952,40.653873
6103,655 FRANKLIN AVE,-73.95598,40.676167
7434,1918 AVENUE N,-73.955956,40.618454
8764,516 AUTUMN AVENUE,-73.86834,40.67633
460,1992 EAST 2ND STREET,-73.97029,40.600845
461,418 STATE STREET,-73.98334,40.687145
462,298 UNION STREET,-73.9955,40.682243
463,634 THIRD STREET,-73.97507,40.668816
464,888 CARROLL STREET,-73.971794,40.671425
465,133 SEVENTH AVENUE,-73.9765,40.672977
466,987 MANHATTAN AVENUE,-73.9547,40.73281
467,337 18TH STREET,-73.988434,40.66108
468,343 6 AVENUE,-73.98133,40.671154
469,1940 86TH STREET,-73.99949,40.605343
7426,570 44TH STREET,-74.00533,40.647552
8758,186 PROSPECT PARK WEST,-73.97911,40.661903
7425,2968 AVENUE T,-73.94075,40.60285
8759,21 BUTLER PLACE,-73.968636,40.674915
7428,1327 EAST 87TH STREET,-73.90032,40.63177
8756,811 CORTELYOU ROAD,-73.97061,40.638813
7427,668 56TH STREET,-74.010155,40.63953
8757,1734 EAST 53RD STREET,-73.92365,40.61604
7429,1818 NEWKIRK AVENUE,-73.96047,40.636898
7440,2113 EAST 33RD STREET,-73.93136,40.60642
8772,7825 4TH AVENUE,-74.02604,40.628437
8773,1219 EAST 54TH STREET,-73.92392,40.62786
6111,132 EAST 93RD STREET,-73.92624,40.661808
7442,1895A PACIFIC STREET,-73.92607,40.676365
8770,231 AVENUE Z,-73.9846,40.58464
6110,723 WARWICK STREET,-73.88359,40.66506
7441,122 THOMAS S BOYLAND ST,-73.914024,40.68062
8771,729 LIBERTY AVENUE,-73.88263,40.676464
6113,147 SOUTH OXFORD STREET,-73.97319,40.684994
7444,28 BAY 26TH STREET,-74.001495,40.661644
8776,717 NEW JERSEY AVENUE,-73.89198,40.661774
6112,183 DEKALB AVENUE,-73.97238,40.689598
7443,8657 BAY 16TH STREET,-74.00857,40.60886
8777,1102 EAST 85TH STREET,-73.90578,40.634415
6115,2707 AVENUE R,-73.94594,40.6071
7446,332 101ST STREET,-74.03516,40.612812
8774,280 ST JOHNS PLACE,,
6114,29 VAN SICKLEN STREET,-73.974075,40.603592
7445,228 74TH STREET,-74.029335,40.632584
8775,2965 VOORHIES AVENUE,-73.93809,40.587456
470,55 HEYWARD STREET,-73.95801,40.700474
471,43 DEAN STREET,-73.99117,40.687828
472,103 ATLANTIC AVENUE,-73.99683,40.69093
473,99 ATLANTIC AVE,-73.99696,40.690968
474,118 STATE STREET,-73.99536,40.691257
475,705 HART STREET,-73.925255,40.699375
476,942 BERGEN STREET,-73.9559,40.676834
477,1004 HEGEMAN AVENUE,-73.875946,40.666687
478,155 GREENPOINT AVENUE,-73.95363,40.730263
479,1951 EAST 5TH STREET,-73.96779,40.602707
6106,449 SHEPHERD AVENUE,-73.88064,40.67349
7437,62 MONTAGUE STREET,-73.99632,40.695347
8769,493 HEGEMAN AVENUE,-73.89316,40.65929
6105,222 VAN SICLEN AVENUE,-73.890816,40.674625
7436,1589 INDEPENDENCE AVENUE,-74.01435,40.603508
6108,271 NEW JERSEY AVENUE,-73.895065,40.672882
7439,647 EAST 95TH STREET,-73.91343,40.65254
8767,6310 STRICKLAND AVENUE,-73.911194,40.61439
6107,534 CRESCENT STREET,-73.86987,40.674847
7438,114 CLINTON STREET,-73.99296,40.693176
8768,21A SOMERS ST,-73.91201,40.678596
6109,570 MILLER AVENUE,-73.88955,40.66609
6120,154 SUMPTER STREET,-73.91872,40.680134
7451,311 FRANKLIN AVENUE,-73.9572,40.688828
8783,1551 44TH STREET,-73.98367,40.634495
7450,262 SKILLMAN ST,-73.95625,40.690243
8784,324 GRAFTON STREET,-73.917206,40.660683
6122,1776 EAST 2ND STREET,-73.971405,40.60623
7453,106 KINGS HIGHWAY,-73.987404,40.606102
8781,22 WEBSTER AVENUE,-73.978325,40.62924
6121,1869 MCDONALD AVENUE,-73.97269,40.60722
7452,2258 82ND STREET,-73.99017,40.60343
8782,4721 8TH AVENUE,-74.002106,40.642654
6124,3812 NAUTILUS AVE,-74.005844,40.575886
7455,2165 63RD STREET,-73.98105,40.61551
8787,2839 WEST 32ND STREET,-73.99881,40.576458
6123,841 AVENUE Z,-73.96283,40.58704
7454,1308 EAST 69TH STREET,-73.913925,40.623444
8788,794 ST. JOHNS PLACE,,
6126,2240 EAST 22ND STREET,-73.948845,40.596394
7457,1938 63RD STREET,-73.98596,40.61847
8785,655 EAST 92 STREET,-73.915665,40.651234
6125,4024 MANHATTAN AVE,-74.00897,40.576458
7456,5821 21ST AVENUE,-73.97964,40.619053
8786,1317 EAST 84 STREET,-73.90267,40.630493
480,146 ST JOHNS PLACE,-73.975266,40.6769
481,528 3 STREET,-73.97774,40.67011
8780,848 43RD STREET,-73.99855,40.64438
482,84 ST MARKS PLACE,-73.97959,40.68168
483,304 CLINTON AVENUE,-73.968,40.689026
484,975 MANHATTAN AVENUE,-73.95464,40.732487
485,119 CONGRESS STREET,-73.99797,40.68897
486,90&130 FURMAN ST,,
487,185 WAVERLY AVENUE,-73.96763,40.69216
488,593 5 STREET,-73.97641,40.667793
489,602 6 STREET,-73.97676,40.667103
6117,1160 EAST 13TH STREET,-73.96253,40.621166
7448,6833 SHORE ROAD,-74.03571,40.639427
6116,1927 COLEMAN STREET,-73.92901,40.613216
7447,2 MARINE AVENUE,-74.03809,40.620575
6119,1229 EAST 24TH STREET,-73.95152,40.620605
8778,72 DARE CT,-73.9229,40.588806
6118,2615 AVENUE I,-73.95092,40.628777
7449,751A MONROE STREET,-73.92639,40.688255
8779,155 BAYRIDGE PARKWAY,-74.0317,40.632397
6131,1370 PARK PLACE,-73.93203,40.672424
7462,916 THOMAS S. BOYLAND ST,-73.91068,40.658005
8794,642 EAST 59TH STREET,-73.920296,40.638462
6130,400 LINDEN STREET,-73.912285,40.700634
7461,931 THOMAS S BOYLAND STR,-73.910576,40.65765
8795,152 EAST 51ST STREET,-73.93011,40.658585
6133,9405 SKIDMORE AVENUE,-73.89016,40.631508
7464,374 LEGION STREET,-73.91592,40.65934
8792,420 MILFORD STREET,-73.87541,40.66854
6132,1225 43RD STREET,-73.99019,40.639343
7463,185 DUMONT AVENUE,-73.91253,40.663616
8793,463 EAST 54TH STREET,-73.926,40.64741
6135,186 PROSPECT PARK WEST,-73.97911,40.661903
7466,925 BUSHWICK AVENUE,-73.92414,40.692883
8798,763 OCEAN PARKWAY,-73.97121,40.629803
6134,2110 GERRITSEN AVENUE,-73.936714,40.603233
7465,2272 STRAUSS STREET,-73.91367,40.658375
8799,4904 AVENUE M,-73.92803,40.6213
6137,2881 86TH STREET,-73.97636,40.59137
7468,624 EAST 96TH STREET,-73.91236,40.652912
8796,1912 AVENUE H,-73.95828,40.6304
6136,292 BAY 10TH STREET,,
7467,110A COVERT STREET,-73.91055,40.688084
8797,311 HOWARD AVENUE,-73.91918,40.677216
490,561 4 AVENUE,-73.99227,40.66608
491,234 PROSPECT PARK WEST,-73.9811,40.659542
8790,25 MCCLANCY PLACE,-73.885254,40.66416
492,411 PACIFIC STREET,-73.984474,40.685997
8791,701 CLEVELAND STREET,-73.88255,40.66717
493,86A THIRD PLACE,-73.99832,40.67886
7460,652 SARATOGA AVENUE,-73.91635,40.664948
494,90 EAST 18TH STREET,-73.96295,40.648743
495,3514 BEDFORD AVENUE,-73.94977,40.616436
496,546 FOURTH STREET,-73.97576,40.66831
497,161 4 AVENUE,-73.98194,40.67903
498,313 UNION AVENUE,-73.95092,40.709732
499,518 2ND STREET,-73.97747,40.67082
6128,2411 BRIGHAM,-73.93395,40.59427
7459,35 SEACOAST TERRACE,-73.956635,40.576668
6127,2815 AVENUE X,-73.942375,40.593616
7458,6209 14TH AVENUE,-73.99762,40.62629
8789,146 NICHOLS AVENUE,-73.869354,40.687424
6129,564 WYTHE AVE,-73.96684,40.705803
6142,1152 EAST 58TH STREET,-73.91998,40.62663
7473,1272 EAST 95TH STREET,-73.89973,40.64022
6141,446 MARION STREET,-73.911285,40.681736
7472,1411 EAST 84TH STREET,-73.90095,40.628937
6144,2051 58TH STREET,-73.980576,40.619854
7475,9115 AVENUE N,-73.89772,40.634308
6143,8849 18TH AVENUE,-74.00778,40.602325
7474,1025 EAST 104TH STREET,-73.89306,40.644936
6146,291A COOPER STREET,-73.90388,40.69132
7477,574 EAST 91ST STREET,-73.91837,40.652554
6145,431 STERLING PLACE,-73.96417,40.674797
7476,105-58 AVENUE M,,
6148,2438 EAST 70TH STREET,-73.902176,40.613987
7479,9415 FOSTER AVENUE,-73.90805,40.646816
6147,447 95TH STREET,-74.03036,40.615295
7478,1416 REMSEN AVENUE,-73.901474,40.636185
6140,71 OCEAN PARKWAY,-73.975006,40.649014
7471,10 PAERDEGAT 13 STREET,-73.90312,40.627644
7470,1226 E 86,,
6139,951 PRESIDENT STREET,-73.9721,40.672356
6138,2114 STUART STREET,-73.93573,40.603542
7469,1225 EAST 85TH STREET,-73.903625,40.632492
6153,135 AMITY STREET,-73.99589,40.689167
7484,201 CLINTON AVENUE,-73.96856,40.691902
6152,75 HENRY STREET,-73.99222,40.699093
7483,185 CLINTON AVENUE,-73.96865,40.692364
6155,220 LINCOLN AVENUE,-73.86961,40.68483
7486,345 CLINTON AVENUE,-73.967705,40.68761
6154,40 ELDERT LANE,,
7485,360 CLINTON AVENUE,-73.96769,40.68747
6157,8 EAST 95TH STREET,-73.92714,40.664837
7488,110 CLIFTON PLACE,-73.96031,40.68809
6156,616 EAST 18TH STREET,-73.96056,40.636147
7487,355 CLINTON AVENUE,-73.96765,40.687355
6159,404 BOND STREET,-73.99157,40.67732
6158,331 EAST 93 STREET,-73.92255,40.658516
7489,13 CHEEVER PLACE,-73.9991,40.686596
7480,66 4TH PLACE,-73.999435,40.67824
6151,73 COLUMBIA HEIGHTS,-73.99535,40.70035
7482,185 CLINTON AVENUE,-73.96865,40.692364
6150,1525 44TH STREET,-73.98416,40.634792
7481,205 CLINTON AVENUE,-73.96854,40.691788
6149,164 BOND STREET,-73.98641,40.68462
6164,2449 EAST 65TH STREET,-73.907684,40.610886
7495,71 RIDGEWOOD AVENUE,-73.886375,40.682583
6163,146 BARLOW DRIVE SOUTH,-73.905685,40.608345
7494,1593 STERLING PLACE,-73.92586,40.671204
6166,511 12TH STREET,-73.979866,40.66354
7497,169 LINWOOD STREET,-73.88417,40.681755
6165,1021 MCDONALD AVENUE,-73.97675,40.628647
7496,175 EUCLID AVENUE,-73.87439,40.68426
6168,175 PROSPECT PARK SW,-73.97303,40.65381
7499,66 WILLIAMS AVENUE,-73.900475,40.674778
6167,898 METROPOLITAN AVENUE,-73.93915,40.714607
7498,637 HEGEMAN AVENUE,-73.888306,40.66138
6169,108 NEPTUNE AVENUE,-73.95755,40.582462
6160,1549 WEST 6TH STREET,-73.979935,40.60938
7491,2858 WEST 17TH STREET,-73.98497,40.577602
7490,2746 WEST 16TH STREET,-73.984215,40.57936
6162,2945 QUENTIN ROAD,-73.94298,40.610657
7493,1668 BERGEN STREET,-73.92718,40.67485
6161,135 OCEAN PARKWAY,-73.97458,40.64701
7492,2825 WEST 20TH STREET,-73.987206,40.578045
6175,8696 18TH AVENUE,-74.004555,40.60545
6174,2102 63RD STREET,-73.98224,40.61622
6177,1533 84TH STREET,-74.00749,40.612133
6176,1949 66TH STREET,-73.9876,40.6166
6179,13 STANHOPE STREET,-73.92635,40.69468
6178,2324 EAST 71ST STREET,-73.9033,40.6161
6171,62 EAST 57 STREET,-73.92392,40.65484
6170,1533 PACIFIC STREET,-73.94024,40.67714
6173,100 MALCOLM X BLVD,-73.93051,40.690193
6172,2757 WEST 16TH STREET,-73.98436,40.580147
6186,423 ETNA STREET,-73.868286,40.68818
6185,185 HALE AVENUE,-73.88007,40.680832
6188,191 WILLOUGHBY STREET,-73.97992,40.691963
6187,1149 76TH STREET,-74.011375,40.62171
6189,1850 WEST 7TH STREET,-73.979614,40.602207
6180,595 VAN BUREN STREET,-73.925995,40.69226
6182,1167 GREENE AVENUE,-73.9224,40.695126
6181,191 PALMETTO STREET,-73.916214,40.69427
6184,362 EASTERN PARKWAY,-73.95664,40.670162
6183,1273 PARK PLACE,-73.93539,40.672646
3902,160 HENRY STREET,-73.993835,40.69578
3903,2 GRACE COURT,-73.99633,40.69402
3904,103 20TH STREET,-73.997574,40.664845
3905,9 MENAHAN STREET,-73.92263,40.692516
3906,74 ABERDEEN STREET,-73.90522,40.682793
3907,78 ABERDEEN STREET,-73.905136,40.682877
3908,13 PALMETTO STREET,-73.92089,40.689503
3909,62 PUTNAM AVENUE,-73.95918,40.682972
3900,2975 OCEAN PARKWAY,-73.967705,40.57863
3901,3072 BRIGHTON 1ST STREET,-73.9671,40.57675
6197,474 MARION STREET,-73.910904,40.681778
6196,6304 STRICKLAND AVENUE,-73.911224,40.61437
6199,1271 EAST 8TH STREET,-73.966805,40.618046
6198,65A SOMERS STREET,-73.91001,40.678898
6191,1790 EAST 22ND STREET,-73.951,40.607765
6190,15 BAY 31ST STREET,-74.00537,40.65955
6193,1860 EAST 33RD STREET,-73.93607,40.610634
6192,3623 AVENUE R,-73.93479,40.613148
6195,1531 EAST 38TH STREET,-73.93838,40.618317
6194,2038 STUART STREET,-73.93718,40.604836
3913,865 STERLING PLACE,-73.94966,40.672504
3914,750 LINCOLN PLACE,-73.951614,40.670807
3915,929 81 STREET,-74.01902,40.62178
3916,6614 10TH AVENUE,-74.00888,40.629265
3917,973 BAY RIDGE AVENUE,,
3918,1237 67TH STREET,-74.004074,40.62564
3919,799 OCEAN AVENUE,-73.95967,40.64305
3910,110 CLIFTON PLACE,-73.96031,40.68809
3911,1 TIFFANY PLACE,-74.00058,40.68731
3912,1420 PACIFIC STREET,-73.94324,40.67729
3924,562 MAPLE ST,-73.94198,40.66136
3925,74 VANDERBILT AVENUE,-73.970116,40.69451
3926,387 ADELPHI STREET,-73.97041,40.68592
3927,1645 WEST 2ND STREET,-73.97572,40.607517
3928,41 LAKE ST.,-73.9732,40.60319
3929,2362 BOYNTON PLACE,-73.97633,40.590405
3920,2506 NEWKIRK AVENUE,-73.95308,40.639694
3921,1645 NEW YORK AVENUE,-73.94474,40.632927
3922,518 EAST 51ST STREET,-73.92909,40.64908
3923,440 MIDWOOD STREET,-73.94614,40.66039
2603,75 86TH STREET,-74.03748,40.624992
3935,1394 EAST 23RD STREET,-73.95176,40.61676
2602,1441 EAST 12TH STREET,-73.96214,40.61419
3936,1333 EAST 14TH STREET,-73.96075,40.616802
2601,30 GARFIELD PLACE,-73.98317,40.67527
3937,1719 AVENUE P,-73.95648,40.61064
2600,540 EAST NEW YORK AVENUE,-73.9448,40.661926
3938,219 PARK AVENUE,-73.97005,40.696125
3939,851 MADISON STREET,-73.92234,40.687973
2609,167 VERNON AVENUE,-73.94493,40.695118
2608,670 MACON STREET,-73.92394,40.68403
3930,1143 36TH STREET,-73.98729,40.643925
2607,678 HALSEY STREET,-73.92692,40.684437
3931,316 EAST 7TH STREET,-73.972885,40.644276
2606,794 LEXINGTON AVENUE,-73.92724,40.6904
3932,2710 AVENUE S,,
2605,163 STUYVESANT AVENUE,-73.93334,40.68946
3933,2519 AVENUE K,-73.95094,40.623894
2604,200 VAN BUREN,-73.93826,40.690628
3934,1277 EAST 22ND STREET,-73.95345,40.620777
2614,774 GREENE AVENUE,-73.93745,40.689976
3946,59 MONTGOMERY PLACE,-73.97282,40.671124
2613,176 TOMPKINS AVENUE,-73.94585,40.693027
3947,120 PROSPECT PARK WEST,-73.975876,40.66577
2612,7 VERONA PLACE,-73.94764,40.68118
3948,493 13TH STREET,-73.980446,40.66298
2611,388 MADISON ST,-73.94277,40.68561
3949,40 PROSPECT PARK WEST,-73.97237,40.669983
2610,406 GREENE AVENUE,-73.95433,40.68803
3940,802 EAST 3RD STREET,-73.97539,40.632748
2619,1728 57TH STREET,-73.98702,40.62465
3941,1012 CONEY ISLAND AVENUE,-73.966965,40.632896
2618,7905 15TH AVENUE,-74.00546,40.615295
3942,347 AVENUE X,-73.970085,40.59056
2617,1627 68TH STREET,-73.995964,40.61983
3943,2416 EAST 7 STREET,-73.96286,40.591415
2616,1189 FULTON STREET,-73.95403,40.680786
3944,712 AVENUE X,-73.96259,40.59138
2615,511 QUINCY STREET,-73.93932,40.688267
3945,849 CARROLL STREET,-73.97259,40.67175
2625,289 COOPER STREET,-73.9039,40.691296
